     3.02           OBSERVATION DATA    G                   RINEX VERSION / TYPE
G = GPS  R = GLONASS  E = GALILEO  S = GEO  M = MIXED       COMMENT             
GNSS-SDR            UNKNOWN USER        20210820 114601 UTC PGM / RUN BY / DATE 
GPS OBSERVATION DATA FILE GENERATED BY GNSS-SDR             COMMENT             
GNSS-SDR VERSION 0.0.14.git-next-f767f792b                  COMMENT             
See https://gnss-sdr.org                                    COMMENT             
DEFAULT MARKER NAME                                         MARKER NAME         
UNKNOWN USER        CTTC                                    OBSERVER / AGENCY   
GNSS-SDR            Software Receiver   0.0.14.gi           REC # / TYPE / VERS 
Antenna number      Antenna type                            ANT # / TYPE        
        0.0000        0.0000        0.0000                  APPROX POSITION XYZ 
        0.0000        0.0000        0.0000                  ANTENNA: DELTA H/E/N
G    4 C1C L1C D1C S1C                                      SYS / # / OBS TYPES 
DBHZ                                                        SIGNAL STRENGTH UNIT
  2012    09    14    12    46   18.1200000     GPS         TIME OF FIRST OBS   
    16    16   158     7                                    LEAP SECONDS        
                                                            END OF HEADER       
> 2012 09 14 12 46 19.0000000  0  5                                             
G06  25385132.111 7 133399764.810 7      -563.396 7        44.447               
G16  25596489.202 7 134510459.201 7     -2815.045 7        44.969               
G19  25611378.297 7 134588699.162 7      2583.343 7        44.140               
G10  27387987.089 6 143924877.054 6       592.214 6        37.359               
G03  24439616.062 7 128431047.147 7       715.768 7        46.330               
> 2012 09 14 12 46 20.0000000  0  5                                             
G06  25385243.220 7 133400334.051 7      -567.189 7        44.434               
G16  25597023.682 7 134513277.227 7     -2820.434 7        45.071               
G19  25610884.093 7 134586112.335 7      2590.575 7        44.284               
G10  27387877.820 6 143924285.925 6       599.481 6        37.426               
G03  24439482.419 7 128430331.046 7       717.992 7        46.266               
> 2012 09 14 12 46 21.0000000  0  5                                             
G06  25385347.861 7 133400903.912 7      -571.172 7        44.338               
G16  25597564.256 7 134516095.464 7     -2817.374 7        45.404               
G19  25610392.427 7 134583525.915 7      2586.210 7        43.869               
G10  27387769.766 6 143923695.378 6       588.239 6        37.574               
G03  24439343.077 7 128429615.619 7       715.137 7        46.336               
> 2012 09 14 12 46 22.0000000  0  5                                             
G06  25385457.256 7 133401474.414 7      -563.869 7        44.495               
G16  25598101.273 7 134518913.927 7     -2822.849 7        45.382               
G19  25609894.167 7 134580939.871 7      2583.300 7        44.016               
G10  27387648.025 6 143923105.414 6       590.685 6        37.982               
G03  24439206.665 7 128428900.873 7       718.904 7        46.826               
> 2012 09 14 12 46 23.0000000  0  5                                             
G06  25385567.382 7 133402045.566 7      -575.815 7        44.252               
G16  25598638.220 7 134521732.584 7     -2819.615 7        45.545               
G19  25609405.718 7 134578354.205 7      2584.462 7        44.010               
G10  27387539.452 6 143922516.003 6       583.431 6        37.922               
G03  24439075.095 7 128428186.805 7       711.600 7        46.162               
> 2012 09 14 12 46 24.0000000  0  5                                             
G06  25385675.776 7 133402617.324 7      -570.071 7        44.505               
G16  25599174.058 7 134524551.451 7     -2816.083 7        45.411               
G19  25608916.946 7 134575768.926 7      2585.626 7        44.157               
G10  27387427.699 6 143921927.189 6       586.668 6        37.599               
G03  24438936.610 7 128427473.411 7       712.752 7        46.022               
> 2012 09 14 12 46 25.0000000  0  5                                             
G06  25385784.116 7 133403189.724 7      -572.332 7        43.472               
G16  25599708.932 7 134527370.525 7     -2817.896 7        45.595               
G19  25608423.332 7 134573184.020 7      2585.324 7        44.272               
G10  27387315.696 6 143921338.891 6       588.702 6        37.933               
G03  24438799.197 7 128426760.711 7       714.666 7        46.461               
> 2012 09 14 12 46 26.0000000  0  5                                             
G06  25385895.190 7 133403762.743 7      -574.711 7        44.285               
G16  25600244.681 7 134530189.813 7     -2817.057 7        45.634               
G19  25607930.612 7 134570599.497 7      2589.052 7        43.778               
G10  27387211.502 6 143920751.228 6       585.294 6        38.088               
G03  24438663.786 7 128426048.692 7       710.457 7        46.473               
> 2012 09 14 12 46 27.0000000  0  5                                             
G06  25386004.887 7 133404336.397 7      -571.839 7        44.541               
G16  25600783.307 7 134533009.316 7     -2822.347 7        45.685               
G19  25607435.211 7 134568015.378 7      2579.547 7        43.844               
G10  27387101.608 6 143920164.110 6       590.026 6        38.009               
G03  24438528.589 7 128425337.353 7       710.088 7        46.069               
> 2012 09 14 12 46 28.0000000  0  5                                             
G06  25386117.659 7 133404910.692 7      -572.079 7        44.307               
G16  25601320.342 7 134535829.016 7     -2820.760 7        45.593               
G19  25606944.099 7 134565431.640 7      2588.827 7        44.082               
G10  27386985.924 6 143919577.572 6       580.073 6        38.446               
G03  24438393.410 7 128424626.690 7       709.963 7        46.548               
> 2012 09 14 12 46 29.0000000  0  5                                             
G06  25386227.482 7 133405485.621 7      -570.093 7        44.208               
G16  25601857.074 7 134538648.939 7     -2819.718 7        45.488               
G19  25606452.254 7 134562848.280 7      2585.374 7        44.179               
G10  27386869.811 6 143918991.613 6       581.821 6        38.213               
G03  24438257.623 7 128423916.720 7       710.451 7        47.094               
> 2012 09 14 12 46 30.0000000  0  5                                             
G06  25386331.480 7 133406061.175 7      -574.431 7        44.088               
G16  25602393.734 7 134541469.079 7     -2819.195 7        46.227               
G19  25605959.659 7 134560265.317 7      2587.899 7        44.266               
G10  27386763.133 6 143918406.235 6       587.810 6        38.369               
G03  24438124.713 7 128423207.436 7       709.923 7        46.346               
> 2012 09 14 12 46 31.0000000  0  5                                             
G06  25386441.392 7 133406637.378 7      -573.686 7        43.926               
G16  25602930.699 7 134544289.425 7     -2821.338 7        45.792               
G19  25605470.798 7 134557682.734 7      2577.126 7        43.983               
G10  27386651.934 6 143917821.419 6       578.097 6        37.986               
G03  24437988.319 7 128422498.834 7       710.967 7        46.837               
> 2012 09 14 12 46 32.0000000  0  5                                             
G06  25386549.678 7 133407214.202 7      -576.186 7        43.992               
G16  25603467.520 7 134547109.981 7     -2821.358 7        45.383               
G19  25604979.525 7 134555100.529 7      2585.503 7        44.365               
G10  27386538.591 6 143917237.158 6       581.023 6        37.868               
G03  24437855.606 7 128421790.904 7       711.585 7        46.667               
> 2012 09 14 12 46 33.0000000  0  5                                             
G06  25386659.376 7 133407791.668 7      -576.183 7        43.658               
G16  25604005.770 7 134549930.749 7     -2820.203 7        45.966               
G19  25604489.556 7 134552518.737 7      2580.477 7        43.652               
G10  27386430.322 6 143916653.464 6       587.597 6        38.663               
G03  24437722.928 7 128421083.684 7       704.291 7        47.008               
> 2012 09 14 12 46 34.0000000  0  5                                             
G06  25386771.004 7 133408369.766 7      -579.510 7        43.791               
G16  25604540.662 7 134552751.718 7     -2822.350 7        45.705               
G19  25603997.819 7 134549937.314 7      2580.736 7        43.519               
G10  27386320.928 6 143916070.375 6       592.455 6        37.982               
G03  24437589.768 7 128420377.130 7       707.724 7        47.263               
> 2012 09 14 12 46 35.0000000  0  5                                             
G06  25386879.862 7 133408948.513 7      -574.446 7        43.890               
G16  25605079.145 7 134555572.896 7     -2822.126 7        45.833               
G19  25603505.742 7 134547356.279 7      2579.638 7        43.827               
G10  27386209.407 6 143915487.859 6       582.031 6        38.201               
G03  24437456.823 7 128419671.265 7       703.616 7        47.011               
> 2012 09 14 12 46 36.0000000  0  5                                             
G06  25386994.385 7 133409527.889 7      -579.217 7        43.551               
G16  25605615.448 7 134558394.283 7     -2820.813 7        45.876               
G19  25603018.703 7 134544775.631 7      2581.476 7        44.172               
G10  27386095.403 6 143914905.889 6       577.758 6        38.094               
G03  24437319.463 7 128418966.078 7       704.630 7        46.637               
> 2012 09 14 12 46 37.0000000  0  5                                             
G06  25387104.636 7 133410107.903 7      -580.680 7        43.448               
G16  25606153.466 7 134561215.879 7     -2821.973 7        45.935               
G19  25602527.591 7 134542195.369 7      2579.986 7        44.458               
G10  27385982.864 6 143914324.517 6       581.786 6        38.264               
G03  24437186.375 7 128418261.563 7       706.521 7        46.492               
> 2012 09 14 12 46 38.0000000  0  5                                             
G06  25387209.420 7 133410688.531 7      -582.022 7        42.769               
G16  25606687.357 7 134564037.683 7     -2819.782 7        45.889               
G19  25602038.016 7 134539615.487 7      2578.339 7        44.634               
G10  27385876.704 6 143913743.720 6       575.406 6        38.754               
G03  24437051.839 7 128417557.733 7       705.795 7        46.747               
> 2012 09 14 12 46 39.0000000  0  5                                             
G06  25387321.120 7 133411269.785 7      -580.242 7        43.344               
G16  25607225.733 7 134566859.694 7     -2823.848 7        45.681               
G19  25601547.868 7 134537035.999 7      2579.494 7        44.336               
G10  27385766.756 6 143913163.475 6       586.682 6        38.494               
G03  24436918.751 7 128416854.583 7       706.874 7        46.368               
> 2012 09 14 12 46 40.0000000  0  5                                             
G06  25387433.105 7 133411851.676 7      -582.108 7        43.753               
G16  25607761.964 7 134569681.916 7     -2824.488 7        46.012               
G19  25601056.917 7 134534456.900 7      2582.207 7        44.572               
G10  27385656.236 6 143912583.812 6       581.040 6        39.335               
G03  24436784.018 7 128416152.138 7       700.495 7        46.810               
> 2012 09 14 12 46 41.0000000  0  5                                             
G06  25387546.323 7 133412434.196 7      -585.756 7        43.266               
G16  25608300.000 7 134572504.341 7     -2820.787 7        45.682               
G19  25600569.504 7 134531878.177 7      2581.447 7        44.385               
G10  27385553.328 6 143912004.726 6       574.470 6        39.264               
G03  24436652.985 7 128415450.362 7       703.116 7        46.802               
> 2012 09 14 12 46 42.0000000  0  5                                             
G06  25387651.697 7 133413017.371 7      -581.748 7        43.425               
G16  25608837.715 7 134575326.990 7     -2821.757 7        45.591               
G19  25600082.305 7 134529299.845 7      2575.706 7        45.275               
G10  27385433.856 6 143911426.229 6       578.115 6        39.166               
G03  24436519.253 7 128414749.277 7       701.133 7        46.779               
> 2012 09 14 12 46 43.0000000  0  5                                             
G06  25387765.755 7 133413601.152 7      -581.474 7        43.785               
G16  25609375.716 7 134578149.839 7     -2822.256 7        45.389               
G19  25599589.406 7 134526721.899 7      2575.329 7        45.034               
G10  27385323.676 6 143910848.283 6       582.205 6        39.238               
G03  24436383.609 7 128414048.872 7       697.536 7        46.659               
> 2012 09 14 12 46 44.0000000  0  5                                             
G06  25387875.917 7 133414185.577 7      -586.240 7        43.832               
G16  25609912.537 7 134580972.891 7     -2822.946 7        46.277               
G19  25599099.115 7 134524144.339 7      2580.526 7        44.594               
G10  27385213.477 6 143910270.935 6       582.903 6        38.609               
G03  24436253.469 7 128413349.152 7       697.701 7        47.064               
> 2012 09 14 12 46 45.0000000  0  5                                             
G06  25387989.421 7 133414770.642 7      -583.633 7        44.005               
G16  25610448.500 7 134583796.160 7     -2819.972 7        45.985               
G19  25598608.200 7 134521567.175 7      2577.849 7        44.895               
G10  27385103.118 6 143909694.163 6       574.943 6        38.511               
G03  24436118.665 7 128412650.115 7       697.942 7        46.982               
> 2012 09 14 12 46 48.0000000  0  5                                             
G06  25388325.698 7 133416529.632 7      -585.793 7        44.214               
G16  25612063.967 7 134592267.218 7     -2820.455 7        45.221               
G19  25597135.935 7 134513838.013 7      2574.707 7        44.390               
G10  27384772.506 6 143907967.248 6       577.446 6        37.096               
G03  24435722.223 7 128410557.092 7       697.193 7        47.100               
> 2012 09 14 12 46 49.0000000  0  5                                             
G06  25388435.789 7 133417117.223 7      -589.409 7        44.658               
G16  25612601.164 7 134595091.330 7     -2823.330 7        45.168               
G19  25596643.072 7 134511262.389 7      2570.499 7        44.821               
G10  27384659.538 6 143907392.771 6       569.202 6        37.065               
G03  24435589.653 7 128409860.786 7       696.070 7        46.767               
> 2012 09 14 12 46 50.0000000  0  5                                             
G06  25388546.845 7 133417705.448 7      -593.348 7        44.082               
G16  25613136.805 7 134597915.625 7     -2822.839 7        46.054               
G19  25596156.498 7 134508687.179 7      2573.052 7        44.514               
G10  27384543.514 6 143906818.859 6       573.342 6        38.114               
G03  24435458.226 7 128409165.170 7       694.813 7        46.769               
> 2012 09 14 12 46 51.0000000  0  5                                             
G06  25388659.617 7 133418294.298 7      -592.167 7        44.220               
G16  25613674.359 7 134600740.144 7     -2821.129 7        45.687               
G19  25595666.548 7 134506112.333 7      2574.483 7        44.713               
G10  27384444.520 6 143906245.519 6       580.986 6        37.504               
G03  24435325.691 7 128408470.227 7       692.261 7        46.609               
> 2012 09 14 12 46 52.0000000  0  5                                             
G06  25388771.495 7 133418883.777 7      -590.509 7        44.032               
G16  25614214.379 7 134603564.867 7     -2819.116 7        45.437               
G19  25595172.290 7 134503537.882 7      2577.250 7        44.651               
G10  27384340.611 6 143905672.755 6       575.650 6        38.012               
G03  24435189.065 7 128407775.967 7       696.560 7        46.038               
> 2012 09 14 12 46 53.0000000  0  5                                             
G06  25388883.355 7 133419473.900 7      -591.055 7        44.033               
G16  25614747.626 7 134606389.800 7     -2825.654 7        45.510               
G19  25594683.948 7 134500963.835 7      2573.259 7        44.797               
G10  27384226.786 6 143905100.547 6       570.607 6        37.772               
G03  24435058.121 7 128407082.391 7       691.642 7        46.618               
> 2012 09 14 12 46 54.0000000  0  5                                             
G06  25388998.842 7 133420064.645 7      -589.308 7        44.840               
G16  25615287.593 7 134609214.940 7     -2827.401 7        45.617               
G19  25594192.782 7 134498390.164 7      2570.650 7        45.217               
G10  27384119.446 6 143904528.929 6       569.894 6        38.335               
G03  24434924.264 7 128406389.504 7       693.239 7        46.370               
> 2012 09 14 12 46 55.0000000  0  5                                             
G06  25389109.237 7 133420656.021 7      -589.478 7        44.471               
G16  25615819.714 7 134612040.287 7     -2825.074 7        45.949               
G19  25593702.581 7 134495816.866 7      2575.324 7        44.835               
G10  27384014.948 6 143903957.853 6       563.734 6        38.107               
G03  24434791.819 7 128405697.286 7       695.747 7        46.579               
> 2012 09 14 12 46 56.0000000  0  5                                             
G06  25389223.027 7 133421248.039 7      -591.421 7        44.584               
G16  25616360.109 7 134614865.837 7     -2827.236 7        45.373               
G19  25593211.683 7 134493243.965 7      2573.313 7        44.604               
G10  27383912.202 6 143903387.383 6       565.535 6        37.719               
G03  24434658.444 7 128405005.773 7       689.289 7        46.566               
> 2012 09 14 12 46 57.0000000  0  5                                             
G06  25389331.546 7 133421840.719 7      -594.241 7        44.179               
G16  25616897.860 7 134617691.611 7     -2826.158 7        45.242               
G19  25592724.592 7 134490671.442 7      2572.776 7        45.203               
G10  27383799.698 6 143902817.513 6       568.839 6        37.570               
G03  24434529.019 7 128404314.943 7       693.129 7        46.447               
> 2012 09 14 12 46 58.0000000  0  5                                             
G06  25389446.854 7 133422434.000 7      -598.110 7        44.882               
G16  25617433.841 7 134620517.587 7     -2822.319 7        45.495               
G19  25592236.839 7 134488099.323 7      2571.101 7        45.272               
G10  27383687.481 6 143902248.171 6       569.429 6        37.538               
G03  24434400.022 7 128403624.789 7       691.053 7        46.404               
> 2012 09 14 12 46 59.0000000  0  5                                             
G06  25389558.840 7 133423027.914 7      -593.803 7        44.363               
G16  25617970.448 7 134623343.762 7     -2826.442 7        45.018               
G19  25591744.190 7 134485527.578 7      2573.697 7        45.076               
G10  27383583.626 6 143901679.433 6       567.940 6        37.794               
G03  24434268.882 7 128402935.327 7       689.206 7        46.533               
> 2012 09 14 12 47 00.0000000  0  5                                             
G06  25389673.451 7 133423622.441 7      -592.025 7        44.280               
G16  25618513.577 7 134626170.154 7     -2824.484 7        45.248               
G19  25591258.903 7 134482956.247 7      2573.124 7        44.344               
G10  27383476.555 6 143901111.243 6       560.865 6        38.198               
G03  24434140.118 7 128402246.549 7       688.421 7        46.742               
> 2012 09 14 12 47 01.0000000  0  5                                             
G06  25389785.883 7 133424217.615 7      -592.141 7        43.987               
G16  25619047.646 7 134628996.737 7     -2828.013 7        45.047               
G19  25590764.771 7 134480385.289 7      2565.625 7        44.586               
G10  27383366.035 6 143900543.624 6       565.126 6        39.026               
G03  24434008.655 7 128401558.459 7       684.184 7        46.836               
> 2012 09 14 12 47 02.0000000  0  5                                             
G06  25389899.995 7 133424813.418 7      -596.588 7        44.387               
G16  25619588.559 7 134631823.545 7     -2831.039 7        45.595               
G19  25590277.018 7 134477814.703 7      2567.716 7        44.438               
G10  27383259.875 6 143899976.587 6       571.109 6        38.870               
G03  24433876.978 7 128400871.055 7       685.817 7        46.961               
> 2012 09 14 12 47 03.0000000  0  5                                             
G06  25390013.177 7 133425409.878 7      -594.790 7        44.471               
G16  25620126.828 7 134634650.547 7     -2825.085 7        45.019               
G19  25589785.906 7 134475244.537 7      2569.921 7        43.945               
G10  27383148.247 6 143899410.117 6       564.091 6        38.453               
G03  24433747.196 7 128400184.332 7       683.062 7        46.521               
> 2012 09 14 12 47 04.0000000  0  5                                             
G06  25390126.395 7 133426006.947 7      -594.666 7        44.385               
G16  25620664.096 7 134637477.761 7     -2826.475 7        45.356               
G19  25589298.903 7 134472674.746 7      2574.647 7        44.150               
G10  27383035.172 6 143898844.250 6       559.233 6        38.172               
G03  24433616.716 7 128399498.300 7       685.868 7        46.975               
> 2012 09 14 12 47 05.0000000  0  5                                             
G06  25390240.471 7 133426604.664 7      -601.383 7        44.366               
G16  25621205.241 7 134640305.177 7     -2826.104 7        44.745               
G19  25588812.973 7 134470105.352 7      2571.180 7        45.024               
G10  27382935.963 6 143898278.929 6       563.391 6        38.634               
G03  24433485.897 7 128398812.942 7       683.148 7        46.440               
> 2012 09 14 12 47 06.0000000  0  5                                             
G06  25390352.331 7 133427203.001 7      -600.497 7        43.828               
G16  25621739.453 7 134643132.802 7     -2826.239 7        44.782               
G19  25588319.038 7 134467536.340 7      2567.367 7        44.782               
G10  27382823.835 6 143897714.195 6       560.390 6        38.736               
G03  24433355.435 7 128398128.283 7       682.886 7        46.849               
> 2012 09 14 12 47 07.0000000  0  5                                             
G06  25390465.746 7 133427801.977 7      -596.520 7        44.662               
G16  25622279.902 7 134645960.623 7     -2828.114 7        45.013               
G19  25587837.021 7 134464967.710 7      2571.738 7        45.416               
G10  27382714.173 6 143897150.024 6       565.828 6        38.550               
G03  24433224.402 7 128397444.280 7       685.062 7        47.026               
> 2012 09 14 12 47 08.0000000  0  5                                             
G06  25390582.324 7 133428401.588 7      -598.513 7        44.056               
G16  25622815.740 7 134648788.671 7     -2827.463 7        44.993               
G19  25587347.356 7 134462399.490 7      2570.304 7        45.505               
G10  27382604.600 6 143896586.428 6       571.164 6        38.368               
G03  24433094.369 7 128396760.979 7       683.325 7        47.374               
> 2012 09 14 12 47 09.0000000  0  5                                             
G06  25390698.026 7 133429001.831 7      -602.111 7        44.507               
G16  25623357.797 7 134651616.916 7     -2831.771 7        45.015               
G19  25586856.565 7 134459831.647 7      2567.025 7        45.124               
G10  27382501.121 6 143896023.415 6       560.047 6        39.309               
G03  24432961.566 7 128396078.363 7       680.628 7        46.765               
> 2012 09 14 12 47 10.0000000  0  5                                             
G06  25390811.976 7 133429602.703 7      -602.714 7        44.470               
G16  25623893.564 7 134654445.371 7     -2826.193 7        44.836               
G19  25586370.331 7 134457264.200 7      2567.145 7        44.404               
G10  27382396.622 6 143895460.964 6       567.051 6        38.412               
G03  24432836.251 7 128395396.407 7       684.314 7        46.476               
> 2012 09 14 12 47 11.0000000  0  5                                             
G06  25390926.946 7 133430204.212 7      -604.665 7        44.089               
G16  25624430.832 7 134657274.039 7     -2826.300 7        44.373               
G19  25585877.522 7 134454697.136 7      2569.771 7        44.398               
G10  27382285.102 6 143894899.084 6       560.121 6        39.163               
G03  24432700.964 7 128394715.159 7       679.194 7        46.286               
> 2012 09 14 12 47 12.0000000  0  5                                             
G06  25391041.951 7 133430806.356 7      -601.050 7        44.284               
G16  25624971.048 7 134660102.905 7     -2829.050 7        44.779               
G19  25585389.501 7 134452130.463 7      2569.933 7        44.746               
G10  27382185.714 6 143894337.822 6       557.567 6        39.539               
G03  24432573.433 7 128394034.592 7       681.327 7        45.813               
> 2012 09 14 12 47 13.0000000  0  5                                             
G06  25391158.117 7 133431409.137 7      -602.586 7        43.949               
G16  25625512.498 7 134662931.980 7     -2826.897 7        44.830               
G19  25584900.408 7 134449564.180 7      2566.303 7        44.559               
G10  27382068.994 6 143893777.093 6       560.295 6        39.229               
G03  24432443.668 7 128393354.709 7       678.743 7        46.159               
> 2012 09 14 12 47 14.0000000  0  5                                             
G06  25391272.157 7 133432012.540 7      -602.132 7        44.211               
G16  25626046.120 7 134665761.252 7     -2825.486 7        45.524               
G19  25584415.335 7 134446998.299 7      2566.545 7        44.623               
G10  27381972.001 6 143893216.964 6       554.614 6        39.093               
G03  24432314.439 7 128392675.508 7       680.986 7        46.454               
> 2012 09 14 12 47 15.0000000  0  5                                             
G06  25391386.716 7 133432616.575 7      -604.578 7        44.363               
G16  25626587.677 7 134668590.739 7     -2828.478 7        44.991               
G19  25583924.187 7 134444432.818 7      2568.042 7        44.627               
G10  27381860.123 6 143892657.388 6       559.611 6        39.423               
G03  24432185.657 7 128391996.984 7       677.721 7        46.366               
> 2012 09 14 12 47 16.0000000  0  5                                             
G06  25391499.737 7 133433221.233 7      -603.788 7        44.272               
G16  25627126.714 7 134671420.423 7     -2832.847 7        45.623               
G19  25583435.863 7 134441867.726 7      2564.137 7        44.347               
G10  27381750.407 6 143892098.396 6       553.193 6        38.987               
G03  24432056.000 7 128391319.163 7       679.156 7        46.272               
> 2012 09 14 12 47 18.0000000  0  5                                             
G06  25391729.104 7 133434432.470 7      -601.917 7        44.036               
G16  25628202.840 7 134677080.413 7     -2830.193 7        45.658               
G19  25582462.376 7 134436738.722 7      2559.197 7        44.997               
G10  27381542.465 6 143890982.121 6       551.758 6        38.892               
G03  24431800.491 7 128389965.547 7       679.120 7        46.523               
> 2012 09 14 12 47 19.0000000  0  5                                             
G06  25391844.163 7 133435039.033 7      -605.076 7        44.219               
G16  25628741.662 7 134679910.704 7     -2832.482 7        45.574               
G19  25581972.711 7 134434174.796 7      2564.111 7        44.589               
G10  27381440.112 6 143890424.840 6       558.315 6        39.353               
G03  24431674.460 7 128389289.768 7       676.255 7        46.606               
> 2012 09 14 12 47 20.0000000  0  5                                             
G06  25391961.348 7 133435646.228 7      -604.847 7        43.965               
G16  25629277.536 7 134682741.202 7     -2826.676 7        45.373               
G19  25581486.995 7 134431611.248 7      2561.525 7        45.074               
G10  27381329.234 6 143889868.134 6       554.084 6        39.151               
G03  24431545.232 7 128388614.672 7       674.030 7        46.325               
> 2012 09 14 12 47 21.0000000  0  5                                             
G06  25392076.996 7 133436254.058 7      -611.951 7        43.521               
G16  25629817.610 7 134685571.916 7     -2827.709 7        45.783               
G19  25580995.133 7 134429048.134 7      2562.097 7        44.126               
G10  27381229.990 6 143889312.002 6       546.457 6        38.916               
G03  24431416.021 7 128387940.261 7       672.697 7        45.852               
> 2012 09 14 12 47 22.0000000  0  5                                             
G06  25392194.628 7 133436862.535 7      -607.932 7        44.063               
G16  25630356.808 7 134688402.824 7     -2827.265 7        45.652               
G19  25580509.917 7 134426485.400 7      2564.456 7        44.833               
G10  27381119.899 6 143888756.432 6       550.622 6        39.364               
G03  24431286.399 7 128387266.542 7       675.844 7        46.133               
> 2012 09 14 12 47 23.0000000  0  5                                             
G06  25392308.846 7 133437471.640 7      -615.179 7        44.289               
G16  25630893.754 7 134691233.944 7     -2831.730 7        45.365               
G19  25580020.092 7 134423923.048 7      2565.300 7        45.181               
G10  27381010.630 6 143888201.433 6       552.399 6        39.399               
G03  24431158.510 7 128386593.505 7       672.644 7        46.486               
> 2012 09 14 12 47 24.0000000  0  5                                             
G06  25392426.961 7 133438081.366 7      -610.005 7        44.334               
G16  25631431.504 7 134694065.262 7     -2828.107 7        45.483               
G19  25579532.642 7 134421361.068 7      2563.802 7        44.727               
G10  27380908.186 6 143887647.030 6       556.589 6        38.993               
G03  24431030.532 7 128385921.161 7       673.166 7        46.503               
> 2012 09 14 12 47 25.0000000  0  5                                             
G06  25392539.410 7 133438691.725 7      -611.991 7        44.436               
G16  25631974.347 7 134696896.785 7     -2827.845 7        45.644               
G19  25579046.480 7 134418799.499 7      2560.815 7        45.067               
G10  27380799.346 6 143887093.180 6       553.220 6        39.807               
G03  24430901.464 7 128385249.503 7       668.925 7        46.527               
> 2012 09 14 12 47 26.0000000  0  5                                             
G06  25392654.326 7 133439302.734 7      -608.789 7        44.199               
G16  25632511.115 7 134699728.513 7     -2831.477 7        45.945               
G19  25578559.478 7 134416238.321 7      2561.737 7        44.736               
G10  27380701.460 6 143886539.923 6       552.319 6        39.805               
G03  24430773.951 7 128384578.526 7       670.752 7        46.939               
> 2012 09 14 12 47 27.0000000  0  5                                             
G06  25392770.886 7 133439914.358 7      -610.054 7        44.285               
G16  25633051.403 7 134702560.454 7     -2832.175 7        45.863               
G19  25578075.299 7 134413677.549 7      2558.176 7        45.003               
G10  27380588.939 6 143885987.243 6       552.420 6        39.342               
G03  24430646.259 7 128383908.250 7       663.578 7        46.664               
> 2012 09 14 12 47 28.0000000  0  5                                             
G06  25392889.286 7 133440526.629 7      -616.798 7        44.363               
G16  25633590.493 7 134705392.602 7     -2834.415 7        45.509               
G19  25577587.224 7 134411117.158 7      2562.545 7        45.553               
G10  27380484.512 6 143885435.136 6       550.924 6        39.496               
G03  24430519.854 7 128383238.652 7       670.320 7        46.663               
> 2012 09 14 12 47 29.0000000  0  5                                             
G06  25393007.204 7 133441139.529 7      -613.319 7        44.588               
G16  25634128.351 7 134708224.953 7     -2831.684 7        46.091               
G19  25577099.400 7 134408557.164 7      2559.273 7        45.218               
G10  27380386.822 6 143884883.593 6       549.431 6        39.348               
G03  24430392.269 7 128382569.738 7       668.636 7        46.009               
> 2012 09 14 12 47 30.0000000  0  5                                             
G06  25393126.515 7 133441753.057 7      -613.589 7        44.999               
G16  25634668.996 7 134711057.487 7     -2833.449 7        45.986               
G19  25576610.807 7 134405997.562 7      2560.307 7        44.931               
G10  27380280.823 6 143884332.639 6       548.034 6        39.869               
G03  24430267.221 7 128381901.516 7       672.778 7        46.243               
> 2012 09 14 12 47 31.0000000  0  5                                             
G06  25393242.467 7 133442367.212 7      -615.295 7        44.722               
G16  25635208.444 7 134713890.248 7     -2832.332 7        46.409               
G19  25576120.016 7 134403438.342 7      2559.856 7        44.823               
G10  27380170.660 6 143883782.249 6       551.035 6        39.908               
G03  24430139.333 7 128381233.974 7       666.908 7        46.854               
> 2012 09 14 12 47 32.0000000  0  5                                             
G06  25393348.020 7 133442981.990 7      -613.538 7        45.189               
G16  25635736.777 7 134716723.204 7     -2835.013 7        46.285               
G19  25575625.563 7 134400879.529 7      2556.906 7        44.178               
G10  27380061.248 6 143883232.438 6       549.975 6        39.256               
G03  24430001.294 7 128380567.119 7       667.897 7        46.806               
> 2012 09 14 12 47 33.0000000  0  5                                             
G06  25393466.134 7 133443597.431 7      -614.899 7        45.276               
G16  25636272.580 7 134719556.375 7     -2832.922 7        46.599               
G19  25575139.257 7 134398321.089 7      2558.809 7        44.567               
G10  27379954.820 6 143882683.195 6       550.564 6        38.917               
G03  24429875.443 7 128379900.948 7       662.990 7        46.936               
> 2012 09 14 12 47 34.0000000  0  5                                             
G06  25393578.780 7 133444213.483 7      -617.968 7        44.948               
G16  25636815.655 7 134722389.742 7     -2837.123 7        46.349               
G19  25574651.219 7 134395763.062 7      2558.190 7        44.454               
G10  27379846.624 6 143882134.510 6       545.009 6        39.339               
G03  24429746.250 7 128379235.461 7       665.748 7        46.040               
> 2012 09 14 12 47 35.0000000  0  5                                             
G06  25393701.254 7 133444830.152 7      -616.782 7        44.892               
G16  25637354.460 7 134725223.324 7     -2835.695 7        46.230               
G19  25574167.790 7 134393205.425 7      2555.665 7        44.447               
G10  27379735.800 6 143881586.412 6       551.247 6        39.271               
G03  24429618.611 7 128378570.664 7       664.103 7        46.027               
> 2012 09 14 12 47 36.0000000  0  5                                             
G06  25393817.135 7 133445447.475 7      -618.024 7        45.099               
G16  25637893.104 7 134728057.099 7     -2833.432 7        45.938               
G19  25573681.324 7 134390648.181 7      2556.817 7        44.833               
G10  27379640.183 6 143881038.913 6       545.846 6        39.348               
G03  24429492.152 7 128377906.564 7       664.276 7        45.521               
> 2012 09 14 12 47 37.0000000  0  5                                             
G06  25393932.086 7 133446065.412 7      -617.583 7        45.152               
G16  25638431.480 7 134730891.082 7     -2832.513 7        46.075               
G19  25573196.412 7 134388091.324 7      2556.541 7        44.719               
G10  27379539.669 6 143880491.938 6       543.815 6        38.771               
G03  24429364.085 7 128377243.141 7       664.004 7        46.245               
> 2012 09 14 12 47 39.0000000  0  5                                             
G06  25394166.331 7 133447303.212 7      -624.002 7        44.239               
G16  25639507.820 7 134736559.654 7     -2833.698 7        45.715               
G19  25572221.299 7 134382978.806 7      2557.674 7        45.631               
G10  27379332.782 6 143879399.747 6       544.283 6        39.350               
G03  24429112.400 7 128375918.357 7       662.357 7        46.273               
> 2012 09 14 12 47 40.0000000  0  5                                             
G06  25394285.303 7 133447923.058 7      -619.956 7        44.222               
G16  25640047.375 7 134739394.251 7     -2838.030 7        45.858               
G19  25571735.959 7 134380423.140 7      2553.659 7        44.967               
G10  27379227.605 6 143878854.518 6       546.912 6        39.430               
G03  24428987.871 7 128375256.994 7       659.398 7        46.340               
> 2012 09 14 12 47 41.0000000  0  5                                             
G06  25394405.901 7 133448543.538 7      -622.913 7        43.981               
G16  25640585.126 7 134742229.050 7     -2835.731 7        45.884               
G19  25571250.493 7 134377867.872 7      2554.086 7        44.901               
G10  27379122.213 6 143878309.836 6       540.251 6        39.675               
G03  24428861.572 7 128374596.323 7       656.908 7        46.389               
> 2012 09 14 12 47 42.0000000  0  5                                             
G06  25394520.013 7 133449164.642 7      -621.301 7        44.403               
G16  25641120.803 7 134745064.054 7     -2833.784 7        45.202               
G19  25570762.866 7 134375312.991 7      2552.949 7        44.936               
G10  27379020.449 6 143877765.750 6       539.106 6        39.538               
G03  24428736.972 7 128373936.335 7       657.913 7        46.623               
> 2012 09 14 12 47 43.0000000  0  5                                             
G06  25394641.701 7 133449786.389 7      -621.388 7        44.300               
G16  25641660.787 7 134747899.267 7     -2833.512 7        45.753               
G19  25570270.931 7 134372758.508 7      2553.596 7        44.932               
G10  27378917.202 6 143877222.228 6       542.886 6        39.478               
G03  24428613.515 7 128373277.036 7       660.364 7        46.960               
> 2012 09 14 12 47 44.0000000  0  5                                             
G06  25394758.797 7 133450408.771 7      -624.060 7        44.122               
G16  25642203.863 7 134750734.681 7     -2837.582 7        45.558               
G19  25569789.361 7 134370204.417 7      2555.076 7        45.278               
G10  27378805.932 6 143876679.301 6       535.982 6        39.702               
G03  24428485.733 7 128372618.417 7       658.731 7        46.576               
> 2012 09 14 12 47 45.0000000  0  5                                             
G06  25394875.767 7 133451031.792 7      -620.591 7        44.158               
G16  25642741.595 7 134753570.292 7     -2840.404 7        45.324               
G19  25569296.891 7 134367650.717 7      2554.669 7        45.390               
G10  27378707.652 6 143876136.909 6       542.778 6        39.291               
G03  24428359.971 7 128371960.498 7       657.050 7        46.550               
> 2012 09 14 12 47 46.0000000  0  5                                             
G06  25394996.687 7 133451655.429 7      -623.932 7        43.805               
G16  25643280.704 7 134756406.103 7     -2834.851 7        44.992               
G19  25568810.442 7 134365097.413 7      2553.332 7        44.661               
G10  27378606.370 6 143875595.119 6       543.331 6        38.940               
G03  24428234.745 7 128371303.262 7       656.661 7        46.803               
> 2012 09 14 12 47 47.0000000  0  5                                             
G06  25395119.197 7 133452279.703 7      -627.501 7        43.990               
G16  25643821.885 7 134759242.113 7     -2834.192 7        45.153               
G19  25568325.495 7 134362544.489 7      2553.428 7        43.957               
G10  27378497.083 6 143875053.878 6       543.012 6        39.180               
G03  24428111.699 7 128370646.714 7       660.852 7        46.697               
> 2012 09 14 12 47 48.0000000  0  5                                             
G06  25395234.470 7 133452904.593 7      -623.385 7        43.591               
G16  25644356.812 7 134762078.337 7     -2835.847 7        45.354               
G19  25567841.906 7 134359991.969 7      2554.724 7        44.578               
G10  27378395.248 6 143874513.245 6       536.163 6        39.464               
G03  24427983.238 7 128369990.861 7       656.552 7        46.944               
> 2012 09 14 12 47 49.0000000  0  5                                             
G06  25395350.976 7 133453530.135 7      -625.726 7        43.627               
G16  25644897.171 7 134764914.751 7     -2835.872 7        44.567               
G19  25567355.332 7 134357439.831 7      2552.971 7        44.028               
G10  27378297.576 6 143873973.164 6       535.879 6        39.195               
G03  24427860.943 7 128369335.690 7       652.214 7        46.927               
> 2012 09 14 12 47 50.0000000  0  5                                             
G06  25395467.393 7 133454156.298 7      -625.103 7        43.204               
G16  25645437.316 7 134767751.370 7     -2837.640 7        45.125               
G19  25566870.885 7 134354888.110 7      2553.012 7        43.962               
G10  27378180.427 6 143873433.660 6       535.162 6        39.021               
G03  24427736.878 7 128368681.209 7       651.711 7        46.622               
> 2012 09 14 12 47 51.0000000  0  5                                             
G06  25395591.136 7 133454783.093 7      -625.733 7        43.850               
G16  25645981.088 7 134770588.194 7     -2839.163 7        44.856               
G19  25566386.045 7 134352336.766 7      2553.050 7        44.086               
G10  27378088.258 6 143872894.738 6       536.829 6        39.326               
G03  24427610.437 7 128368027.393 7       654.398 7        46.475               
> 2012 09 14 12 47 52.0000000  0  5                                             
G06  25395713.235 7 133455410.532 7      -630.536 7        44.094               
G16  25646518.034 7 134773425.208 7     -2838.302 7        44.610               
G19  25565901.544 7 134349785.829 7      2551.754 7        44.328               
G10  27377990.032 6 143872356.379 6       539.863 6        39.373               
G03  24427487.105 7 128367374.271 7       650.474 7        46.961               
> 2012 09 14 12 47 53.0000000  0  5                                             
G06  25395833.029 7 133456038.595 7      -628.193 7        44.404               
G16  25647058.680 7 134776262.441 7     -2838.738 7        44.705               
G19  25565417.955 7 134347235.289 7      2546.993 7        44.953               
G10  27377889.036 6 143871818.608 6       534.336 6        39.664               
G03  24427361.968 7 128366721.840 7       652.568 7        46.451               
> 2012 09 14 12 47 54.0000000  0  5                                             
G06  25395950.250 7 133456667.309 7      -624.825 7        44.717               
G16  25647600.969 7 134779099.878 7     -2839.642 7        44.387               
G19  25564935.205 7 134344685.153 7      2550.158 7        45.450               
G10  27377783.698 6 143871281.397 6       534.165 6        39.816               
G03  24427240.584 7 128366070.088 7       652.012 7        46.500               
> 2012 09 14 12 47 55.0000000  0  5                                             
G06  25396071.938 7 133457296.644 7      -626.157 7        44.335               
G16  25648138.648 7 134781937.507 7     -2841.690 7        44.351               
G19  25564450.812 7 134342135.380 7      2549.457 7        44.711               
G10  27377680.005 6 143870744.759 6       537.981 6        39.851               
G03  24427114.983 7 128365419.028 7       648.351 7        46.649               
> 2012 09 14 12 47 56.0000000  0  5                                             
G06  25396190.070 7 133457926.619 7      -632.050 7        44.591               
G16  25648681.723 7 134784775.344 7     -2836.964 7        44.696               
G19  25563964.489 7 134339586.015 7      2552.385 7        44.484               
G10  27377578.419 6 143870208.705 6       535.103 6        39.546               
G03  24426992.991 7 128364768.659 7       651.593 7        46.280               
> 2012 09 14 12 47 57.0000000  0  5                                             
G06  25396309.203 7 133458557.222 7      -632.100 7        44.924               
G16  25649222.386 7 134787613.370 7     -2841.351 7        44.494               
G19  25563479.559 7 134337037.068 7      2545.765 7        44.500               
G10  27377476.941 6 143869673.205 6       539.523 6        39.915               
G03  24426867.532 7 128364118.967 7       648.519 7        46.789               
> 2012 09 14 12 47 58.0000000  0  5                                             
G06  25396429.193 7 133459188.473 7      -629.740 7        44.591               
G16  25649761.459 7 134790451.616 7     -2837.649 7        44.223               
G19  25562995.505 7 134334488.504 7      2548.931 7        44.902               
G10  27377376.857 6 143869138.309 6       538.179 6        40.060               
G03  24426741.234 7 128363469.970 7       650.353 7        47.251               
> 2012 09 14 12 47 59.0000000  0  5                                             
G06  25396550.023 7 133459820.345 7      -628.323 7        44.544               
G16  25650302.551 7 134793290.052 7     -2836.502 7        44.112               
G19  25562509.539 7 134331940.329 7      2548.779 7        45.073               
G10  27377269.571 6 143868603.967 6       531.310 6        40.079               
G03  24426622.852 7 128362821.658 7       648.171 7        47.248               
> 2012 09 14 12 48 00.0000000  0  5                                             
G06  25396670.907 7 133460452.829 7      -632.391 7        44.272               
G16  25650841.337 7 134796128.694 7     -2841.668 7        44.574               
G19  25562021.750 7 134329392.548 7      2546.927 7        44.573               
G10  27377172.095 6 143868070.203 6       530.070 6        39.569               
G03  24426500.074 7 128362174.046 7       648.046 7        46.694               
> 2012 09 14 12 48 01.0000000  0  5                                             
G06  25396792.399 7 133461085.963 7      -636.701 7        44.323               
G16  25651382.340 7 134798967.548 7     -2843.663 7        44.086               
G19  25561535.945 7 134326845.173 7      2549.536 7        44.117               
G10  27377070.224 6 143867536.996 6       529.810 6        39.332               
G03  24426373.936 7 128361527.115 7       647.312 7        46.537               
> 2012 09 14 12 48 02.0000000  0  5                                             
G06  25396909.423 7 133461719.731 7      -632.405 7        44.425               
G16  25651917.428 7 134801806.582 7     -2837.233 7        44.008               
G19  25561055.215 7 134324298.186 7      2549.331 7        44.079               
G10  27376965.780 6 143867004.385 6       531.210 6        39.894               
G03  24426251.140 7 128360880.862 7       645.484 7        46.686               
> 2012 09 14 12 48 03.0000000  0  5                                             
G06  25397030.664 7 133462354.109 7      -635.655 7        44.161               
G16  25652456.697 7 134804645.826 7     -2840.534 7        43.853               
G19  25560567.319 7 134321751.595 7      2547.190 7        43.681               
G10  27376869.287 6 143866472.370 6       529.606 6        39.388               
G03  24426130.060 7 128360235.294 7       646.928 7        46.919               
> 2012 09 14 12 48 04.0000000  0  5                                             
G06  25397152.817 7 133462989.124 7      -637.540 7        44.128               
G16  25652996.860 7 134807485.284 7     -2839.648 7        44.076               
G19  25560080.245 7 134319205.412 7      2543.454 7        44.215               
G10  27376761.626 6 143865940.899 6       526.083 6        38.924               
G03  24426007.067 7 128359590.426 7       644.258 7        46.737               
> 2012 09 14 12 48 05.0000000  0  5                                             
G06  25397271.146 7 133463624.770 7      -636.912 7        44.026               
G16  25653535.879 7 134810324.930 7     -2835.215 7        43.911               
G19  25559598.729 7 134316659.627 7      2546.354 7        43.802               
G10  27376664.990 6 143865409.986 6       527.261 6        39.011               
G03  24425885.487 7 128358946.235 7       645.359 7        46.510               
> 2012 09 14 12 48 06.0000000  0  5                                             
G06  25397393.799 7 133464261.054 7      -633.411 7        44.153               
G16  25654078.079 7 134813164.783 7     -2837.018 7        43.977               
G19  25559113.460 7 134314114.235 7      2548.032 7        44.091               
G10  27376563.709 6 143864879.667 6       533.527 6        39.050               
G03  24425765.836 7 128358302.738 7       644.735 7        46.442               
> 2012 09 14 12 48 07.0000000  0  5                                             
G06  25397515.683 7 133464897.962 7      -640.854 7        44.336               
G16  25654617.598 7 134816004.839 7     -2840.922 7        43.929               
G19  25558628.655 7 134311569.237 7      2540.398 7        44.097               
G10  27376459.157 6 143864349.922 6       530.519 6        39.302               
G03  24425642.164 7 128357659.921 7       644.497 7        46.851               
> 2012 09 14 12 48 08.0000000  0  5                                             
G06  25397636.228 7 133465535.500 7      -635.678 7        45.059               
G16  25655156.814 7 134818845.094 7     -2838.025 7        43.995               
G19  25558141.671 7 134309024.637 7      2547.143 7        44.234               
G10  27376358.161 6 143863820.742 6       530.208 6        39.675               
G03  24425518.421 7 128357017.781 7       643.743 7        46.558               
> 2012 09 14 12 48 09.0000000  0  5                                             
G06  25397762.419 7 133466173.669 7      -638.699 7        45.204               
G16  25655697.334 7 134821685.539 7     -2839.108 7        44.142               
G19  25557657.939 7 134306480.452 7      2544.317 7        44.515               
G10  27376262.669 6 143863292.129 6       526.055 6        39.363               
G03  24425397.376 7 128356376.337 7       638.457 7        46.625               
> 2012 09 14 12 48 10.0000000  0  5                                             
G06  25397884.893 7 133466812.480 7      -638.819 7        45.441               
G16  25656238.032 7 134824526.183 7     -2840.186 7        43.949               
G19  25557175.689 7 134303936.641 7      2545.359 7        44.011               
G10  27376164.944 6 143862764.078 6       531.772 6        39.932               
G03  24425271.596 7 128355735.575 7       639.227 7        46.252               
> 2012 09 14 12 48 11.0000000  0  5                                             
G06  25398004.615 7 133467451.919 7      -642.182 7        44.949               
G16  25656780.893 7 134827367.050 7     -2841.651 7        44.289               
G19  25556691.689 7 134301393.253 7      2545.164 7        44.446               
G10  27376058.426 6 143862236.630 6       530.260 6        40.016               
G03  24425150.248 7 128355095.493 7       639.879 7        45.972               
> 2012 09 14 12 48 12.0000000  0  5                                             
G06  25398129.484 7 133468091.993 7      -641.449 7        45.100               
G16  25657322.932 7 134830208.088 7     -2839.068 7        43.947               
G19  25556207.081 7 134298850.248 7      2541.220 7        44.718               
G10  27375960.772 6 143861709.760 6       525.806 6        39.401               
G03  24425028.381 7 128354456.120 7       640.448 7        46.547               
> 2012 09 14 12 48 13.0000000  0  5                                             
G06  25398251.172 7 133468732.692 7      -639.498 7        45.143               
G16  25657862.023 7 134833049.348 7     -2843.951 7        44.382               
G19  25555718.810 7 134296307.639 7      2545.067 7        44.836               
G10  27375853.433 6 143861183.447 6       525.699 6        39.803               
G03  24424909.230 7 128353817.425 7       640.150 7        46.666               
> 2012 09 14 12 48 14.0000000  0  5                                             
G06  25398370.698 7 133469374.035 7      -640.587 7        45.331               
G16  25658404.973 7 134835890.800 7     -2839.982 7        44.691               
G19  25555239.724 7 134293765.430 7      2545.226 7        43.937               
G10  27375760.496 6 143860657.713 6       526.696 6        40.231               
G03  24424789.061 7 128353179.416 7       640.343 7        46.953               
> 2012 09 14 12 48 15.0000000  0  5                                             
G06  25398487.758 7 133470016.000 7      -643.032 7        44.901               
G16  25658943.831 7 134838732.460 7     -2841.303 7        44.404               
G19  25554755.151 7 134291223.613 7      2539.235 7        44.107               
G10  27375668.292 6 143860132.570 6       525.561 6        40.510               
G03  24424665.854 7 128352542.093 7       638.040 7        46.327               
> 2012 09 14 12 48 16.0000000  0  5                                             
G06  25398615.468 7 133470658.605 7      -644.028 7        45.247               
G16  25659484.101 7 134841574.305 7     -2841.519 7        44.199               
G19  25554271.240 7 134288682.199 7      2537.480 7        44.426               
G10  27375558.094 6 143859607.974 6       522.684 6        40.134               
G03  24424544.434 7 128351905.461 7       638.229 7        46.743               
> 2012 09 14 12 48 17.0000000  0  5                                             
G06  25398734.136 7 133471301.869 7      -645.275 7        44.429               
G16  25660028.678 7 134844416.349 7     -2843.457 7        44.750               
G19  25553787.830 7 134286141.190 7      2542.002 7        44.169               
G10  27375464.782 6 143859083.953 6       523.500 6        40.107               
G03  24424424.212 7 128351269.516 7       631.892 7        47.261               
> 2012 09 14 12 48 18.0000000  0  5                                             
G06  25398858.898 7 133471945.754 7      -641.824 7        44.966               
G16  25660568.179 7 134847258.590 7     -2840.746 7        44.736               
G19  25553306.474 7 134283600.570 7      2539.550 7        43.940               
G10  27375364.519 6 143858560.526 6       526.659 6        40.211               
G03  24424303.238 7 128350634.253 7       634.541 7        46.880               
> 2012 09 14 12 48 19.0000000  0  5                                             
G06  25398982.069 7 133472590.258 7      -643.702 7        45.134               
G16  25661105.715 7 134850101.045 7     -2844.494 7        44.706               
G19  25552821.705 7 134281060.349 7      2538.785 7        43.975               
G10  27375263.791 6 143858037.669 6       509.838 6        40.021               
G03  24424184.749 7 128349999.693 7       630.502 7        47.034               
> 2012 09 14 12 48 20.0000000  0  5                                             
G06  25399102.363 7 133473235.391 7      -644.451 7        44.870               
G16  25661650.327 7 134852943.695 7     -2844.351 7        44.873               
G19  25552339.188 7 134278520.534 7      2534.995 7        44.058               
G10  27375165.351 6 143857515.369 6       524.287 6        40.231               
G03  24424061.864 7 128349365.812 7       633.135 7        47.118               
> 2012 09 14 12 48 21.0000000  0  5                                             
G06  25399223.819 7 133473881.168 7      -646.834 7        45.243               
G16  25662190.633 7 134855786.532 7     -2841.431 7        44.862               
G19  25551856.492 7 134275981.129 7      2535.466 7        44.125               
G10  27375060.352 6 143856993.670 6       518.968 6        40.146               
G03  24423942.695 7 128348732.621 7       633.153 7        47.012               
> 2012 09 14 12 48 22.0000000  0  5                                             
G06  25399351.225 7 133474527.554 7      -646.705 7        45.149               
G16  25662733.940 7 134858629.588 7     -2842.216 7        45.160               
G19  25551371.223 7 134273442.104 7      2541.575 7        44.024               
G10  27374967.880 6 143856472.519 6       520.196 6        40.342               
G03  24423822.204 7 128348100.104 7       632.253 7        47.227               
> 2012 09 14 12 48 23.0000000  0  5                                             
G06  25399475.826 7 133475174.593 7      -646.378 7        44.917               
G16  25663275.300 7 134861472.831 7     -2842.728 7        45.117               
