     3.02           OBSERVATION DATA    G                   RINEX VERSION / TYPE
G = GPS  R = GLONASS  E = GALILEO  S = GEO  M = MIXED       COMMENT             
GNSS-SDR            UNKNOWN USER        20210821 153128 UTC PGM / RUN BY / DATE 
GPS OBSERVATION DATA FILE GENERATED BY GNSS-SDR             COMMENT             
GNSS-SDR VERSION 0.0.14.git-next-f767f792b                  COMMENT             
See https://gnss-sdr.org                                    COMMENT             
DEFAULT MARKER NAME                                         MARKER NAME         
UNKNOWN USER        CTTC                                    OBSERVER / AGENCY   
GNSS-SDR            Software Receiver   0.0.14.gi           REC # / TYPE / VERS 
Antenna number      Antenna type                            ANT # / TYPE        
        0.0000        0.0000        0.0000                  APPROX POSITION XYZ 
        0.0000        0.0000        0.0000                  ANTENNA: DELTA H/E/N
G    4 C1C L1C D1C S1C                                      SYS / # / OBS TYPES 
DBHZ                                                        SIGNAL STRENGTH UNIT
  2012    09    14    12    45   18.1200000     GPS         TIME OF FIRST OBS   
    16    16   158     7                                    LEAP SECONDS        
                                                            END OF HEADER       
> 2012 09 14 12 45 19.0000000  0  5                                             
G06  25378871.591 8 133366867.059 8      -529.827 8        48.935               
G16  25564405.246 8 134341861.532 8     -2804.142 8        50.889               
G19  25641056.743 8 134744661.414 8      2612.141 8        48.130               
G10  27394951.166 7 143961449.854 7       628.233 7        43.376               
G03  24448045.666 8 128475336.609 8       755.870 8        50.323               
> 2012 09 14 12 45 20.0000000  0  5                                             
G06  25378974.982 8 133367398.284 8      -531.252 8        49.420               
G16  25564937.743 8 134344666.747 8     -2804.097 8        50.372               
G19  25640561.914 8 134742051.743 8      2607.533 8        48.084               
G10  27394833.677 7 143960824.288 7       624.975 7        43.108               
G03  24447901.838 8 128474579.610 8       754.507 8        49.834               
> 2012 09 14 12 45 21.0000000  0  5                                             
G06  25379076.031 8 133367930.142 8      -531.939 8        49.655               
G16  25565471.508 8 134347472.181 8     -2805.542 8        49.989               
G19  25640065.620 8 134739442.443 8      2608.982 8        48.584               
G10  27394714.848 7 143960199.307 7       625.496 7        42.498               
G03  24447758.725 8 128473823.289 8       757.419 8        50.165               
> 2012 09 14 12 45 22.0000000  0  5                                             
G06  25379176.240 8 133368462.626 8      -530.564 8        49.670               
G16  25566005.363 8 134350277.830 8     -2807.375 8        50.048               
G19  25639568.182 7 134736833.522 7      2609.729 7        47.306               
G10  27394595.304 7 143959574.896 7       627.680 7        42.970               
G03  24447612.074 8 128473067.650 8       755.969 8        50.899               
> 2012 09 14 12 45 23.0000000  0  5                                             
G06  25379275.735 8 133368995.745 8      -532.578 8        48.104               
G16  25566538.021 8 134353083.695 8     -2804.456 8        50.374               
G19  25639071.816 8 134734224.976 8      2605.365 8        48.376               
G10  27394478.655 7 143958951.061 7       623.322 7        43.585               
G03  24447469.140 8 128472312.697 8       754.572 8        51.549               
> 2012 09 14 12 45 24.0000000  0  5                                             
G06  25379377.428 7 133369529.503 7      -532.566 7        47.942               
G16  25567071.429 8 134355889.774 8     -2806.935 8        49.600               
G19  25638574.110 7 134731616.806 7      2608.731 7        47.779               
G10  27394361.416 7 143958327.795 7       626.976 7        42.434               
G03  24447324.812 8 128471558.419 8       753.839 8        50.805               
> 2012 09 14 12 45 25.0000000  0  5                                             
G06  25379478.584 8 133370063.897 8      -534.762 8        48.002               
G16  25567606.910 8 134358696.071 8     -2805.309 8        50.559               
G19  25638078.942 7 134729009.018 7      2609.073 7        47.559               
G10  27394244.803 7 143957705.108 7       619.250 7        42.322               
G03  24447179.394 8 128470804.824 8       752.030 8        50.075               
> 2012 09 14 12 45 26.0000000  0  5                                             
G06  25379579.330 8 133370598.924 8      -535.707 8        48.564               
G16  25568140.068 8 134361502.576 8     -2806.577 8        50.334               
G19  25637581.003 7 134726401.613 7      2608.573 7        47.587               
G10  27394121.918 7 143957082.990 7       622.157 7        43.038               
G03  24447035.834 8 128470051.905 8       752.024 8        50.490               
> 2012 09 14 12 45 27.0000000  0  5                                             
G06  25379680.111 8 133371134.592 8      -535.313 8        49.166               
G16  25568675.817 8 134364309.307 8     -2807.962 8        49.270               
G19  25637084.995 8 134723794.591 8      2608.459 8        48.110               
G10  27394007.878 7 143956461.442 7       622.308 7        43.460               
G03  24446892.882 8 128469299.670 8       752.505 8        50.602               
> 2012 09 14 12 45 28.0000000  0  5                                             
G06  25379782.822 8 133371670.886 8      -535.596 8        49.318               
G16  25569210.852 8 134367116.255 8     -2807.763 8        49.733               
G19  25636588.522 7 134721187.950 7      2607.270 7        47.816               
G10  27393882.437 7 143955840.486 7       619.757 7        42.695               
G03  24446749.286 8 128468548.109 8       752.365 8        50.772               
> 2012 09 14 12 45 29.0000000  0  5                                             
G06  25379883.943 8 133372207.811 8      -534.708 8        48.993               
G16  25569743.491 8 134369923.414 8     -2805.344 8        49.109               
G19  25636093.550 8 134718581.682 8      2606.596 8        48.600               
G10  27393767.003 7 143955220.082 7       624.536 7        42.053               
G03  24446604.869 8 128467797.231 8       750.793 8        51.097               
> 2012 09 14 12 45 30.0000000  0  5                                             
G06  25379987.119 8 133372745.369 8      -536.560 8        49.217               
G16  25570278.007 8 134372730.801 8     -2807.493 8        48.737               
G19  25635598.846 7 134715975.798 7      2604.810 7        47.827               
G10  27393645.369 6 143954600.276 6       621.046 6        41.674               
G03  24446462.757 8 128467047.038 8       750.503 8        49.779               
> 2012 09 14 12 45 31.0000000  0  5                                             
G06  25380090.938 8 133373283.577 8      -539.833 8        48.262               
G16  25570811.594 8 134375538.390 8     -2808.402 8        49.449               
G19  25635106.358 8 134713370.283 8      2605.430 8        48.171               
G10  27393530.686 6 143953981.030 6       618.166 6        41.997               
G03  24446320.162 8 128466297.526 8       747.691 8        50.449               
> 2012 09 14 12 45 32.0000000  0  5                                             
G06  25380189.789 8 133373822.403 8      -540.278 8        48.127               
G16  25571346.182 8 134378346.203 8     -2808.836 8        49.570               
G19  25634612.780 7 134710765.151 7      2605.884 7        47.915               
G10  27393410.999 7 143953362.364 7       623.184 7        42.162               
G03  24446177.031 8 128465548.690 8       750.298 8        51.096               
> 2012 09 14 12 45 33.0000000  0  5                                             
G06  25380291.714 8 133374361.865 8      -541.772 8        48.808               
G16  25571880.573 8 134381154.226 8     -2808.676 8        49.165               
G19  25634116.790 8 134708160.390 8      2607.189 8        48.743               
G10  27393292.456 7 143952744.275 7       621.292 7        42.609               
G03  24446036.152 8 128464800.540 8       748.337 8        51.605               
> 2012 09 14 12 45 34.0000000  0  5                                             
G06  25380394.461 8 133374901.963 8      -540.842 8        48.856               
G16  25572413.892 8 134383962.465 8     -2808.804 8        49.234               
G19  25633620.263 8 134705556.021 8      2603.060 8        49.231               
G10  27393176.629 7 143952126.743 7       621.590 7        42.777               
G03  24445894.307 8 128464053.071 8       747.490 8        50.443               
> 2012 09 14 12 45 35.0000000  0  5                                             
G06  25380498.709 7 133375442.690 7      -542.110 7        47.558               
G16  25572950.320 8 134386770.926 8     -2808.838 8        49.448               
G19  25633125.059 8 134702952.024 8      2601.914 8        48.143               
G10  27393056.888 7 143951509.802 7       615.756 7        42.010               
G03  24445752.928 8 128463306.285 8       748.581 8        49.295               
> 2012 09 14 12 45 36.0000000  0  5                                             
G06  25380602.939 8 133375984.052 8      -540.333 8        48.053               
G16  25573486.212 8 134389579.594 8     -2810.007 8        49.906               
G19  25632631.749 8 134700348.404 8      2605.327 8        48.424               
G10  27392942.491 6 143950893.435 6       614.481 6        41.394               
G03  24445611.280 8 128462560.173 8       745.345 8        51.480               
> 2012 09 14 12 45 37.0000000  0  5                                             
G06  25380702.630 8 133376526.041 8      -543.020 8        48.894               
G16  25574018.602 8 134392388.470 8     -2809.032 8        49.871               
G19  25632134.847 8 134697745.161 8      2603.456 8        48.506               
G10  27392825.735 6 143950277.638 6       616.563 6        41.238               
G03  24445469.596 8 128461814.752 8       743.739 8        52.200               
> 2012 09 14 12 45 38.0000000  0  5                                             
G06  25380807.361 8 133377068.663 8      -545.986 8        49.652               
G16  25574554.654 8 134395197.571 8     -2809.315 8        49.624               
G19  25631640.268 8 134695142.307 8      2602.941 8        48.597               
G10  27392710.640 7 143949662.396 7       620.081 7        42.269               
G03  24445327.984 8 128461070.011 8       743.461 8        51.292               
> 2012 09 14 12 45 39.0000000  0  5                                             
G06  25380910.483 8 133377611.923 8      -542.601 8        48.847               
G16  25575085.650 8 134398006.876 8     -2809.337 8        49.324               
G19  25631146.583 8 134692539.815 8      2600.659 8        48.682               
G10  27392593.902 7 143949047.744 7       615.895 7        42.088               
G03  24445184.836 8 128460325.950 8       744.082 8        49.649               
> 2012 09 14 12 45 40.0000000  0  5                                             
G06  25381012.658 8 133378155.813 8      -544.207 8        48.729               
G16  25575619.684 8 134400816.399 8     -2809.725 8        50.023               
G19  25630651.343 8 134689937.723 8      2600.709 8        48.451               
G10  27392480.988 7 143948433.668 7       610.175 7        42.757               
G03  24445042.241 8 128459582.567 8       743.983 8        50.389               
> 2012 09 14 12 45 41.0000000  0  5                                             
G06  25381116.262 7 133378700.331 7      -547.234 7        47.900               
G16  25576151.252 8 134403626.139 8     -2809.601 8        49.586               
G19  25630157.943 8 134687336.005 8      2600.732 8        48.859               
G10  27392364.732 6 143947820.150 6       614.320 6        41.706               
G03  24444900.772 8 128458839.865 8       743.106 8        49.962               
> 2012 09 14 12 45 42.0000000  0  5                                             
G06  25381222.315 8 133379245.488 8      -546.679 8        48.020               
G16  25576685.589 8 134406436.094 8     -2811.760 8        48.851               
G19  25629663.329 8 134684734.657 8      2601.961 8        48.174               
G10  27392249.244 7 143947207.230 7       613.135 7        42.859               
G03  24444758.391 8 128458097.845 8       740.590 8        49.781               
> 2012 09 14 12 45 43.0000000  0  5                                             
G06  25381325.848 8 133379791.279 8      -545.067 8        48.507               
G16  25577221.124 8 134409246.258 8     -2810.708 8        48.722               
G19  25629163.639 8 134682133.690 8      2599.457 8        48.515               
G10  27392134.186 7 143946594.865 7       612.312 7        43.660               
G03  24444616.350 8 128457356.502 8       741.902 8        50.288               
> 2012 09 14 12 45 44.0000000  0  5                                             
G06  25381429.953 7 133380337.710 7      -546.394 7        47.711               
G16  25577757.087 8 134412056.640 8     -2810.939 8        48.301               
G19  25628667.488 8 134679533.104 8      2599.311 8        48.051               
G10  27392014.570 7 143945983.084 7       611.112 7        42.427               
G03  24444475.632 8 128456615.843 8       740.768 8        49.857               
> 2012 09 14 12 45 45.0000000  0  5                                             
G06  25381534.505 8 133380884.773 8      -549.051 8        48.280               
G16  25578290.870 8 134414867.238 8     -2812.093 8        48.236               
G19  25628169.139 8 134676932.896 8      2601.661 8        48.054               
G10  27391898.958 7 143945371.863 7       615.052 7        42.794               
G03  24444337.772 8 128455875.863 8       740.678 8        50.426               
> 2012 09 14 12 45 46.0000000  0  5                                             
G06  25381638.038 7 133381432.475 7      -548.064 7        47.207               
G16  25578827.227 8 134417678.042 8     -2811.069 8        48.203               
G19  25627675.007 7 134674333.074 7      2600.771 7        47.785               
G10  27391782.345 7 143944761.219 7       609.869 7        42.314               
G03  24444197.715 8 128455136.570 8       739.299 8        50.478               
> 2012 09 14 12 45 47.0000000  0  5                                             
G06  25381742.018 7 133381980.807 7      -547.171 7        46.614               
G16  25579361.868 8 134420489.068 8     -2811.307 8        49.326               
G19  25627179.660 8 134671733.631 8      2598.378 8        48.039               
G10  27391665.231 7 143944151.166 7       607.323 7        43.596               
G03  24444057.264 8 128454397.958 8       738.401 8        50.413               
> 2012 09 14 12 45 48.0000000  0  5                                             
G06  25381847.284 7 133382529.776 7      -551.524 7        47.274               
G16  25579896.849 8 134423300.308 8     -2809.246 8        49.213               
G19  25626686.939 8 134669134.571 8      2598.424 8        48.429               
G10  27391550.655 7 143943541.652 7       611.198 7        42.516               
G03  24443916.224 8 128453660.021 8       735.586 8        50.423               
> 2012 09 14 12 45 49.0000000  0  5                                             
G06  25381950.406 7 133383079.383 7      -550.747 7        47.787               
G16  25580431.633 8 134426111.764 8     -2811.531 8        48.495               
G19  25626191.574 8 134666535.891 8      2600.724 8        48.046               
G10  27391428.663 7 143942932.750 7       607.414 7        42.239               
G03  24443776.256 8 128452922.766 8       735.321 8        49.649               
> 2012 09 14 12 45 50.0000000  0  5                                             
G06  25382058.299 8 133383629.626 8      -550.611 8        48.178               
G16  25580967.186 8 134428923.426 8     -2813.069 8        48.457               
G19  25625697.013 7 134663937.587 7      2600.242 7        47.311               
G10  27391311.156 6 143942324.396 6       610.052 6        41.483               
G03  24443636.342 8 128452186.191 8       738.247 8        50.910               
> 2012 09 14 12 45 51.0000000  0  5                                             
G06  25382163.083 8 133384180.484 8      -550.820 8        49.141               
G16  25581502.845 8 134431735.312 8     -2811.710 8        48.704               
G19  25625200.647 8 134661339.670 8      2594.951 8        48.556               
G10  27391197.652 6 143941716.639 6       604.933 6        40.615               
G03  24443495.230 8 128451450.295 8       734.613 8        50.707               
> 2012 09 14 12 45 52.0000000  0  5                                             
G06  25382266.902 8 133384731.983 8      -551.822 8        49.877               
G16  25582036.468 8 134434547.396 8     -2812.294 8        49.302               
G19  25624705.747 8 134658742.128 8      2598.731 8        48.622               
G10  27391082.040 6 143941109.426 6       610.476 6        40.181               
G03  24443354.476 8 128450715.079 8       734.430 8        51.925               
> 2012 09 14 12 45 53.0000000  0  5                                             
G06  25382370.578 8 133385284.112 8      -553.954 8        49.461               
G16  25582572.789 8 134437359.698 8     -2812.096 8        48.490               
G19  25624214.045 8 134656144.967 8      2597.093 8        48.481               
G10  27390967.499 6 143940502.807 6       610.626 6        41.370               
G03  24443215.491 8 128449980.546 8       736.156 8        51.923               
> 2012 09 14 12 45 54.0000000  0  5                                             
G06  25382476.292 8 133385836.882 8      -551.809 8        49.770               
G16  25583108.895 8 134440172.216 8     -2811.750 8        49.418               
G19  25623718.573 8 134653548.194 8      2597.108 8        48.803               
G10  27390852.887 6 143939896.759 6       608.144 6        41.455               
G03  24443076.505 8 128449246.696 8       734.695 8        50.743               
> 2012 09 14 12 45 55.0000000  0  5                                             
G06  25382580.021 8 133386390.287 8      -553.742 8        48.982               
G16  25583644.805 8 134442984.944 8     -2811.141 8        49.811               
G19  25623225.656 8 134650951.804 8      2594.065 8        48.870               
G10  27390741.492 6 143939291.289 6       599.608 6        41.650               
G03  24442935.394 8 128448513.535 8       731.703 8        51.033               
> 2012 09 14 12 45 56.0000000  0  5                                             
G06  25382686.199 8 133386944.332 8      -553.547 8        48.085               
G16  25584180.751 8 134445797.887 8     -2814.835 8        49.461               
G19  25622731.917 8 134648355.800 8      2594.704 8        48.100               
G10  27390625.129 6 143938686.386 6       603.182 6        41.257               
G03  24442798.428 8 128447781.051 8       733.595 8        50.107               
> 2012 09 14 12 45 57.0000000  0  5                                             
G06  25382790.054 8 133387499.006 8      -555.379 8        48.012               
G16  25584715.177 8 134448611.041 8     -2813.241 8        49.233               
G19  25622237.070 8 134645760.184 8      2594.892 8        49.105               
G10  27390507.372 6 143938082.050 6       606.718 6        40.853               
G03  24442659.496 8 128447049.245 8       731.710 8        50.957               
> 2012 09 14 12 45 58.0000000  0  5                                             
G06  25382896.625 7 133388054.311 7      -554.300 7        47.961               
G16  25585250.730 8 134451424.420 8     -2815.320 8        49.750               
G19  25621745.386 8 134643164.937 8      2595.660 8        48.948               
G10  27390393.403 6 143937478.301 6       604.133 6        41.878               
G03  24442519.724 8 128446318.132 8       729.822 8        49.891               
> 2012 09 14 12 45 59.0000000  0  5                                             
G06  25383002.570 7 133388610.253 7      -557.176 7        47.301               
G16  25585786.979 8 134454238.003 8     -2814.505 8        49.389               
G19  25621252.898 8 134640570.080 8      2592.358 8        48.340               
G10  27390277.362 6 143936875.117 6       601.908 6        41.937               
G03  24442383.348 8 128445587.690 8       729.870 8        50.264               
> 2012 09 14 12 46 00.0000000  0  5                                             
G06  25383105.370 7 133389166.810 7      -557.155 7        47.157               
G16  25586322.746 8 134457051.804 8     -2815.710 8        49.188               
G19  25620762.143 8 134637975.600 8      2591.573 8        49.060               
G10  27390162.214 7 143936272.522 7       603.263 7        42.322               
G03  24442243.880 8 128444857.938 8       728.361 8        50.642               
> 2012 09 14 12 46 01.0000000  0  5                                             
G06  25383212.477 8 133389723.998 8      -555.362 8        48.178               
G16  25586858.674 8 134459865.813 8     -2813.967 8        49.334               
G19  25620269.708 8 134635381.491 8      2596.997 8        49.530               
G10  27390047.745 7 143935670.482 7       601.080 7        42.271               
G03  24442107.057 8 128444128.865 8       730.154 8        50.949               
> 2012 09 14 12 46 02.0000000  0  5                                             
G06  25383319.584 8 133390281.824 8      -556.041 8        49.150               
G16  25587394.780 8 134462680.027 8     -2812.362 8        48.341               
G19  25619778.882 8 134632787.768 8      2594.119 8        49.762               
G10  27389932.633 7 143935069.016 7       602.330 7        42.979               
G03  24441966.178 8 128443400.473 8       727.661 8        51.743               
> 2012 09 14 12 46 03.0000000  0  5                                             
G06  25383426.655 8 133390840.285 8      -556.260 8        49.821               
G16  25587930.708 8 134465494.467 8     -2813.822 8        49.649               
G19  25619283.142 8 134630194.439 8      2594.085 8        49.953               
G10  27389816.841 7 143934468.139 7       601.563 7        42.924               
G03  24441828.157 8 128442672.758 8       724.990 8        50.663               
> 2012 09 14 12 46 04.0000000  0  5                                             
G06  25383533.334 8 133391399.379 8      -560.165 8        48.670               
G16  25588465.153 8 134468309.109 8     -2815.517 8        49.408               
G19  25618789.188 8 134627601.477 8      2590.954 8        49.807               
G10  27389707.215 7 143933867.826 7       597.177 7        43.002               
G03  24441688.636 8 128441945.726 8       729.431 8        51.397               
> 2012 09 14 12 46 05.0000000  0  5                                             
G06  25383641.638 7 133391959.114 7      -559.911 7        47.604               
G16  25588999.955 8 134471123.965 8     -2810.909 8        50.069               
G19  25618293.680 8 134625008.909 8      2591.619 8        49.340               
G10  27389593.586 7 143933268.097 7       600.496 7        43.260               
G03  24441553.010 8 128441219.382 8       727.851 8        51.186               
> 2012 09 14 12 46 06.0000000  0  5                                             
G06  25383748.923 8 133392519.468 8      -558.452 8        48.358               
G16  25589537.491 8 134473939.038 8     -2813.365 8        49.121               
G19  25617799.870 8 134622416.716 8      2588.565 8        48.704               
G10  27389479.796 7 143932668.930 7       597.333 7        43.085               
G03  24441414.633 8 128440493.722 8       723.944 8        50.377               
> 2012 09 14 12 46 07.0000000  0  5                                             
G06  25383856.870 8 133393080.462 8      -559.933 8        48.475               
G16  25590072.400 8 134476754.319 8     -2814.819 8        49.244               
G19  25617307.275 8 134619824.901 8      2591.456 8        49.061               
G10  27389367.954 7 143932070.347 7       600.462 7        43.267               
G03  24441275.647 8 128439768.743 8       726.345 8        50.891               
> 2012 09 14 12 46 08.0000000  0  5                                             
G06  25383961.172 8 133393642.090 8      -562.273 8        50.242               
G16  25590606.416 8 134479569.813 8     -2815.597 8        49.255               
G19  25616814.483 8 134617233.487 8      2590.573 8        49.440               
G10  27389247.374 7 143931472.318 7       597.129 7        43.454               
G03  24441137.180 8 128439044.446 8       724.152 8        50.165               
> 2012 09 14 12 46 09.0000000  0  5                                             
G06  25384067.796 8 133394204.359 8      -565.105 8        49.081               
G16  25591143.415 8 134482385.519 8     -2815.764 8        49.414               
G19  25616321.155 8 134614642.450 8      2591.747 8        48.991               
G10  27389131.654 7 143930874.887 7       598.068 7        42.939               
G03  24441000.250 8 128438320.831 8       721.163 8        50.381               
> 2012 09 14 12 46 10.0000000  0  5                                             
G06  25384175.671 8 133394767.248 8      -565.213 8        48.600               
G16  25591676.556 8 134485201.437 8     -2816.488 8        49.964               
G19  25615826.665 8 134612051.803 8      2590.404 8        48.532               
G10  27389017.757 7 143930278.024 7       598.902 7        43.070               
G03  24440862.283 8 128437597.898 8       721.758 8        50.625               
> 2012 09 14 12 46 11.0000000  0  5                                             
G06  25384283.296 8 133395330.771 8      -564.902 8        49.760               
G16  25592213.109 8 134488017.565 8     -2813.380 8        49.878               
G19  25615332.211 7 134609461.525 7      2589.889 7        47.762               
G10  27388903.234 7 143929681.732 7       598.543 7        42.236               
G03  24440724.960 8 128436875.641 8       721.019 8        51.404               
> 2012 09 14 12 46 12.0000000  0  5                                             
G06  25384390.475 8 133395894.937 8      -565.636 8        48.708               
G16  25592749.733 8 134490833.906 8     -2814.560 8        49.868               
G19  25614837.793 8 134606871.639 8      2592.352 8        48.400               
G10  27388793.804 7 143929086.024 7       593.348 7        42.448               
G03  24440588.333 8 128436154.068 8       722.096 8        51.714               
> 2012 09 14 12 46 13.0000000  0  5                                             
G06  25384497.618 8 133396459.731 8      -566.330 8        49.103               
G16  25593285.232 8 134493650.453 8     -2814.127 8        48.872               
G19  25614343.858 8 134604282.124 8      2587.057 8        48.081               
G10  27388681.408 7 143928490.880 7       595.447 7        42.470               
G03  24440450.688 8 128435433.174 8       721.762 8        51.343               
> 2012 09 14 12 46 14.0000000  0  5                                             
G06  25384605.671 8 133397025.157 8      -564.498 8        48.786               
G16  25593820.499 8 134496467.222 8     -2816.269 8        49.640               
G19  25613853.389 8 134601693.000 8      2590.202 8        48.401               
G10  27388567.904 7 143927896.311 7       598.098 7        42.902               
G03  24440313.865 8 128434712.959 8       720.467 8        51.914               
> 2012 09 14 12 46 15.0000000  0  5                                             
G06  25384713.386 8 133397591.222 8      -569.197 8        48.688               
G16  25594356.319 8 134499284.191 8     -2815.349 8        49.598               
G19  25613361.133 8 134599104.262 8      2589.410 8        48.514               
G10  27388458.742 7 143927302.306 7       594.876 7        42.504               
G03  24440177.346 8 128433993.430 8       717.402 8        50.971               
> 2012 09 14 12 46 16.0000000  0  5                                             
G06  25384818.384 8 133398157.923 8      -567.986 8        48.337               
G16  25594892.265 8 134502101.382 8     -2816.210 8        48.810               
G19  25612869.056 8 134596515.911 8      2590.490 8        48.313               
G10  27388343.791 7 143926708.877 7       592.341 7        42.028               
G03  24440039.093 8 128433274.584 8       718.041 8        50.997               
> 2012 09 14 12 46 17.0000000  0  5                                             
G06  25384927.171 8 133398725.247 8      -565.987 8        48.943               
G16  25595428.353 8 134504918.777 8     -2816.302 8        48.810               
G19  25612377.461 8 134593927.951 8      2585.956 8        48.670               
G10  27388232.306 7 143926116.035 7       590.007 7        42.576               
G03  24439901.126 8 128432556.426 8       717.202 8        50.556               
> 2012 09 14 12 46 18.0000000  0  5                                             
G06  25385036.101 8 133399293.209 8      -567.131 8        48.075               
G16  25595964.085 8 134507736.384 8     -2817.035 8        48.414               
G19  25611881.792 8 134591340.363 8      2587.493 8        49.780               
G10  27388118.301 6 143925523.753 6       591.349 6        41.848               
G03  24439763.749 8 128431838.942 8       718.678 8        50.831               
> 2012 09 14 12 46 19.0000000  0  5                                             
G06  25385143.815 8 133399861.809 8      -565.369 8        48.788               
G16  25596500.191 8 134510554.199 8     -2814.739 8        49.296               
G19  25611387.589 8 134588753.157 8      2585.878 8        49.058               
G10  27388003.707 6 143924932.054 6       589.319 6        39.983               
G03  24439629.106 8 128431122.149 8       715.349 8        49.887               
> 2012 09 14 12 46 20.0000000  0  5                                             
G06  25385254.067 8 133400431.043 8      -568.849 8        49.553               
G16  25597036.548 8 134513372.231 8     -2818.421 8        49.431               
G19  25610895.172 8 134586166.339 8      2588.544 8        48.803               
G10  27387891.008 6 143924340.929 6       590.718 6        40.516               
G03  24439492.587 8 128430406.042 8       716.662 8        50.134               
> 2012 09 14 12 46 21.0000000  0  5                                             
G06  25385360.781 8 133401000.914 8      -571.287 8        49.323               
G16  25597574.584 8 134516190.469 8     -2817.774 8        49.925               
G19  25610402.059 8 134583579.912 8      2588.208 8        48.091               
G10  27387778.397 6 143923750.374 6       585.036 6        40.637               
G03  24439355.406 8 128429690.616 8       714.113 8        50.586               
> 2012 09 14 12 46 22.0000000  0  5                                             
G06  25385468.120 8 133401571.416 8      -567.852 8        49.126               
G16  25598111.316 8 134519008.926 8     -2820.944 8        50.056               
G19  25609908.784 7 134580993.865 7      2581.720 7        47.689               
G10  27387659.264 6 143923160.410 6       586.579 6        40.788               
G03  24439221.138 8 128428975.869 8       715.362 8        51.508               
> 2012 09 14 12 46 23.0000000  0  5                                             
G06  25385578.908 8 133402142.553 8      -573.965 8        49.663               
G16  25598649.138 8 134521827.584 8     -2821.275 8        49.494               
G19  25609418.280 8 134578408.203 8      2585.189 8        48.933               
G10  27387552.264 6 143922571.001 6       587.980 6        41.808               
G03  24439085.030 8 128428261.800 8       714.305 8        50.339               
> 2012 09 14 12 46 24.0000000  0  5                                             
G06  25385687.480 8 133402714.323 8      -571.231 8        49.067               
G16  25599185.655 8 134524646.453 8     -2817.657 8        49.549               
G19  25608927.489 8 134575822.922 8      2585.531 8        49.298               
G10  27387438.921 6 143921982.176 6       587.797 6        41.460               
G03  24438948.564 8 128427548.413 8       712.651 8        49.339               
> 2012 09 14 12 46 25.0000000  0  5                                             
G06  25385796.570 7 133403286.715 7      -574.256 7        47.638               
G16  25599719.957 8 134527465.525 8     -2817.956 8        49.719               
G19  25608434.626 8 134573238.019 8      2584.897 8        48.278               
G10  27387330.563 7 143921393.921 7       587.726 7        42.036               
G03  24438811.187 8 128426835.710 8       714.402 8        50.759               
> 2012 09 14 12 46 26.0000000  0  5                                             
G06  25385907.591 8 133403859.740 8      -572.439 8        48.177               
G16  25600257.636 8 134530284.811 8     -2818.283 8        50.186               
G19  25607940.994 7 134570653.503 7      2586.299 7        47.623               
G10  27387219.793 7 143920806.227 7       589.118 7        42.979               
G03  24438676.455 8 128426123.688 8       711.309 8        51.069               
> 2012 09 14 12 46 27.0000000  0  5                                             
G06  25386018.933 8 133404433.397 8      -573.717 8        48.580               
G16  25600793.546 8 134533104.313 8     -2821.313 8        49.933               
G19  25607448.631 7 134568069.384 7      2582.413 7        47.351               
G10  27387112.472 7 143920219.116 7       587.588 7        42.221               
G03  24438540.007 8 128425412.350 8       710.505 8        50.976               
> 2012 09 14 12 46 28.0000000  0  5                                             
G06  25386128.130 8 133405007.692 8      -573.878 8        49.262               
G16  25601331.796 8 134535924.022 8     -2821.845 8        50.058               
G19  25606955.696 7 134565485.640 7      2584.709 7        47.923               
G10  27386996.038 7 143919632.567 7       584.318 7        42.219               
G03  24438405.400 8 128424701.691 8       711.015 8        51.687               
> 2012 09 14 12 46 29.0000000  0  5                                             
G06  25386237.310 8 133405582.616 8      -572.406 8        48.661               
G16  25601867.849 8 134538743.940 8     -2821.477 8        49.997               
G19  25606465.191 8 134562902.284 8      2583.606 8        48.124               
G10  27386880.782 6 143919046.614 6       581.729 6        41.842               
G03  24438270.292 8 128423991.724 8       708.614 8        52.087               
> 2012 09 14 12 46 30.0000000  0  5                                             
G06  25386344.488 8 133406158.175 8      -575.711 8        48.212               
G16  25602405.993 8 134541564.077 8     -2819.050 8        51.123               
G19  25605972.935 8 134560319.318 8      2586.116 8        49.406               
G10  27386774.783 7 143918461.228 7       590.107 7        42.655               
G03  24438136.828 8 128423282.433 8       711.043 8        50.902               
> 2012 09 14 12 46 31.0000000  0  5                                             
G06  25386451.863 8 133406734.381 8      -577.070 8        48.276               
G16  25602942.581 8 134544384.427 8     -2821.488 8        50.419               
G19  25605481.484 8 134557736.735 8      2579.903 8        48.189               
G10  27386667.194 7 143917876.406 7       585.263 7        42.247               
G03  24438002.346 8 128422573.835 8       709.875 8        51.206               
> 2012 09 14 12 46 32.0000000  0  5                                             
G06  25386561.275 7 133407311.205 7      -577.429 7        47.722               
G16  25603480.100 8 134547204.981 8     -2820.250 8        49.627               
G19  25604993.070 8 134555154.537 8      2583.004 8        48.080               
G10  27386553.243 6 143917292.157 6       579.711 6        41.333               
G03  24437868.436 8 128421865.907 8       708.614 8        51.132               
> 2012 09 14 12 46 33.0000000  0  5                                             
G06  25386671.956 7 133407888.667 7      -576.352 7        47.660               
G16  25604016.867 8 134550025.744 8     -2821.157 8        50.270               
G19  25604502.154 8 134552572.735 8      2584.789 8        48.066               
G10  27386445.707 7 143916708.468 7       585.659 7        42.776               
G03  24437735.168 8 128421158.683 8       706.293 8        51.231               
> 2012 09 14 12 46 34.0000000  0  5                                             
G06  25386781.189 7 133408466.769 7      -579.563 7        47.508               
G16  25604553.099 8 134552846.719 8     -2820.984 8        50.089               
G19  25604010.041 7 134549991.316 7      2583.443 7        47.291               
G10  27386331.846 7 143916125.379 7       588.384 7        42.433               
G03  24437600.811 8 128420452.129 8       706.764 8        52.064               
> 2012 09 14 12 46 35.0000000  0  5                                             
G06  25386892.710 7 133409045.515 7      -576.939 7        47.540               
G16  25605090.492 8 134555667.897 8     -2821.112 8        49.883               
G19  25603518.768 7 134547410.281 7      2580.029 7        47.274               
G10  27386215.358 7 143915542.860 7       583.186 7        42.062               
G03  24437467.044 8 128419746.262 8       704.035 8        51.724               
> 2012 09 14 12 46 36.0000000  0  5                                             
G06  25387003.319 7 133409624.888 7      -580.747 7        46.765               
G16  25605627.277 8 134558489.287 8     -2821.163 8        49.558               
G19  25603030.497 7 134544829.630 7      2581.092 7        47.526               
G10  27386105.892 7 143914960.894 7       578.907 7        42.629               
G03  24437331.865 8 128419041.072 8       703.781 8        51.269               
> 2012 09 14 12 46 37.0000000  0  5                                             
G06  25387113.303 7 133410204.897 7      -579.665 7        46.248               
G16  25606163.312 8 134561310.881 8     -2823.428 8        49.769               
G19  25602540.493 8 134542249.366 8      2579.621 8        48.504               
G10  27385996.963 7 143914379.519 7       581.471 7        42.439               
G03  24437198.151 8 128418336.565 8       705.619 8        50.634               
> 2012 09 14 12 46 38.0000000  0  5                                             
G06  25387222.197 7 133410785.531 7      -582.242 7        45.852               
G16  25606700.330 8 134564132.685 8     -2820.283 8        50.060               
G19  25602050.578 8 134539669.482 8      2580.871 8        48.942               
G10  27385890.285 7 143913798.711 7       577.981 7        42.990               
G03  24437065.312 8 128417632.736 8       704.708 8        50.818               
> 2012 09 14 12 46 39.0000000  0  5                                             
G06  25387333.110 7 133411366.783 7      -579.094 7        46.448               
G16  25607236.472 8 134566954.690 8     -2821.549 8        49.637               
G19  25601559.591 8 134537089.999 8      2577.946 8        48.557               
G10  27385781.087 7 143913218.474 7       582.501 7        42.058               
G03  24436930.008 8 128416929.593 8       704.025 8        50.723               
> 2012 09 14 12 46 40.0000000  0  5                                             
G06  25387446.525 7 133411948.677 7      -583.688 7        46.957               
G16  25607774.187 8 134569776.917 8     -2821.484 8        50.405               
G19  25601068.871 8 134534510.894 8      2578.897 8        49.065               
G10  27385669.888 7 143912638.819 7       578.354 7        42.665               
G03  24436796.795 8 128416227.135 8       701.998 8        51.869               
> 2012 09 14 12 46 41.0000000  0  5                                             
G06  25387556.633 7 133412531.200 7      -584.738 7        46.946               
G16  25608311.633 8 134572599.347 8     -2821.980 8        49.428               
G19  25600580.297 8 134531932.171 8      2579.434 8        48.085               
G10  27385563.121 7 143912059.728 7       579.580 7        42.868               
G03  24436663.563 8 128415525.366 8       701.054 8        51.344               
> 2012 09 14 12 46 42.0000000  0  5                                             
G06  25387666.313 7 133413114.364 7      -584.234 7        47.103               
G16  25608849.419 8 134575421.988 8     -2821.660 8        49.536               
G19  25600094.813 8 134529353.848 8      2577.098 8        49.632               
G10  27385446.561 7 143911481.228 7       578.137 7        43.631               
G03  24436531.189 8 128414824.282 8       700.400 8        51.129               
> 2012 09 14 12 46 43.0000000  0  5                                             
G06  25387776.780 7 133413698.158 7      -582.895 7        47.381               
G16  25609386.669 8 134578244.836 8     -2821.338 8        50.031               
G19  25599602.647 8 134526775.901 8      2577.897 8        49.448               
G10  27385333.843 7 143910903.292 7       578.987 7        44.009               
G03  24436396.761 8 128414123.871 8       700.401 8        51.279               
> 2012 09 14 12 46 44.0000000  0  5                                             
G06  25387887.711 7 133414282.581 7      -582.965 7        46.913               
G16  25609924.473 8 134581067.894 8     -2822.401 8        51.013               
G19  25599112.374 8 134524198.345 8      2577.811 8        49.063               
G10  27385223.180 7 143910325.937 7       574.926 7        44.084               
G03  24436264.941 8 128413424.153 8       699.853 8        51.642               
> 2012 09 14 12 46 45.0000000  0  5                                             
G06  25387999.785 7 133414867.644 7      -586.299 7        47.750               
G16  25610460.812 8 134583891.163 8     -2821.355 8        49.937               
G19  25598621.137 8 134521621.177 8      2578.017 8        49.361               
G10  27385107.782 7 143909749.159 7       574.579 7        43.528               
G03  24436131.120 8 128412725.116 8       697.479 8        51.796               
> 2012 09 14 12 46 46.0000000  0  5                                             
G06  25388111.788 8 133415453.340 8      -585.305 8        49.057               
G16  25610999.813 8 134586714.646 8     -2823.310 8        49.639               
G19  25598131.240 8 134519044.400 8      2572.751 8        49.313               
G10  27384999.353 7 143909172.943 7       577.993 7        42.596               
G03  24436000.033 8 128412026.754 8       698.317 8        50.922               
> 2012 09 14 12 46 47.0000000  0  5                                             
G06  25388222.666 8 133416039.671 8      -587.710 8        48.408               
G16  25611537.296 8 134589538.328 8     -2822.892 8        50.270               
G19  25597639.895 8 134516468.015 8      2576.720 8        48.649               
G10  27384890.870 7 143908597.314 7       577.649 7        42.444               
G03  24435865.461 8 128411329.081 8       697.252 8        50.788               
> 2012 09 14 12 46 48.0000000  0  5                                             
G06  25388337.510 8 133416626.630 8      -586.615 8        49.171               
G16  25612074.796 8 134592362.220 8     -2821.285 8        49.165               
G19  25597149.551 8 134513892.011 8      2576.792 8        48.295               
G10  27384782.101 6 143908022.258 6       573.508 6        41.432               
G03  24435733.963 8 128410632.091 8       697.273 8        51.192               
> 2012 09 14 12 46 49.0000000  0  5                                             
G06  25388447.905 8 133417214.225 8      -588.323 8        49.520               
G16  25612612.296 8 134595186.324 8     -2824.179 8        49.670               
G19  25596656.742 8 134511316.395 8      2571.938 8        48.422               
G10  27384675.370 6 143907447.777 6       575.216 6        40.835               
G03  24435600.624 8 128409935.786 8       696.286 8        51.907               
> 2012 09 14 12 46 50.0000000  0  5                                             
G06  25388558.907 7 133417802.447 7      -588.112 7        47.846               
G16  25613150.618 8 134598010.629 8     -2822.504 8        50.734               
G19  25596167.273 8 134508741.173 8      2576.254 8        48.245               
G10  27384554.754 7 143906873.856 7       573.517 7        42.029               
G03  24435470.127 8 128409240.163 8       695.058 8        51.062               
> 2012 09 14 12 46 51.0000000  0  5                                             
G06  25388671.571 8 133418391.297 8      -590.497 8        48.636               
G16  25613686.600 8 134600835.146 8     -2823.653 8        49.933               
G19  25595676.161 8 134506166.336 8      2573.315 8        48.717               
G10  27384452.972 6 143906300.505 6       579.418 6        41.145               
G03  24435336.198 8 128408545.225 8       693.014 8        50.367               
> 2012 09 14 12 46 52.0000000  0  5                                             
G06  25388783.449 7 133418980.783 7      -590.063 7        47.807               
G16  25614224.618 8 134603659.868 8     -2822.679 8        50.034               
G19  25595184.852 8 134503591.887 8      2577.066 8        48.402               
G10  27384350.547 7 143905727.749 7       571.574 7        42.329               
G03  24435203.003 8 128407850.963 8       696.244 8        49.333               
> 2012 09 14 12 46 53.0000000  0  5                                             
G06  25388896.631 8 133419570.906 8      -592.190 8        48.316               
G16  25614761.064 8 134606484.801 8     -2825.890 8        49.564               
G19  25594697.493 8 134501017.831 8      2573.006 8        48.946               
G10  27384237.132 7 143905155.548 7       572.708 7        42.193               
G03  24435069.003 8 128407157.395 8       693.631 8        50.046               
> 2012 09 14 12 46 54.0000000  0  5                                             
G06  25389009.242 8 133420161.649 8      -589.902 8        49.126               
G16  25615298.439 8 134609309.941 8     -2826.351 8        49.759               
G19  25594205.683 8 134498444.156 8      2571.296 8        49.924               
G10  27384129.382 7 143904583.922 7       572.891 7        42.754               
G03  24434937.147 8 128406464.503 8       691.619 8        50.120               
> 2012 09 14 12 46 55.0000000  0  5                                             
G06  25389122.085 8 133420753.016 8      -590.021 8        49.252               
G16  25615834.706 8 134612135.287 8     -2827.485 8        50.818               
G19  25593717.323 8 134495870.865 8      2574.757 8        48.532               
G10  27384026.760 7 143904012.866 7       570.292 7        42.199               
G03  24434803.719 8 128405772.290 8       693.559 8        50.804               
> 2012 09 14 12 46 56.0000000  0  5                                             
G06  25389234.964 8 133421345.038 8      -591.307 8        49.204               
G16  25616370.973 8 134614960.842 8     -2827.193 8        50.436               
G19  25593223.638 8 134493297.959 8      2574.156 8        48.943               
G10  27383920.618 6 143903442.396 6       569.519 6        41.767               
G03  24434670.685 8 128405080.773 8       689.632 8        51.510               
> 2012 09 14 12 46 57.0000000  0  5                                             
G06  25389345.823 8 133421937.711 8      -594.095 8        49.006               
G16  25616909.653 8 134617786.615 8     -2826.045 8        49.561               
G19  25592737.457 8 134490725.441 8      2572.276 8        49.928               
G10  27383807.489 6 143902872.504 6       567.675 6        41.093               
G03  24434541.170 8 128404389.943 8       690.706 8        51.268               
> 2012 09 14 12 46 58.0000000  0  5                                             
G06  25389457.504 8 133422530.998 8      -595.861 8        49.189               
G16  25617447.118 8 134620612.583 8     -2824.984 8        49.626               
G19  25592247.971 8 134488153.318 8      2572.359 8        49.522               
G10  27383700.650 6 143902303.171 6       571.718 6        40.899               
G03  24434411.280 8 128403699.791 8       688.386 8        51.290               
> 2012 09 14 12 46 59.0000000  0  5                                             
G06  25389569.883 8 133423124.910 8      -595.066 8        48.629               
G16  25617985.350 8 134623438.763 8     -2824.985 8        49.260               
G19  25591758.717 8 134485581.584 8      2574.696 8        49.586               
G10  27383593.079 6 143901734.418 6       571.832 6        40.171               
G03  24434281.211 8 128403010.329 8       690.854 8        50.499               
> 2012 09 14 12 47 00.0000000  0  5                                             
G06  25389684.709 8 133423719.447 8      -594.389 8        48.477               
G16  25618524.066 8 134626265.151 8     -2827.352 8        49.312               
G19  25591268.445 8 134483010.246 8      2572.055 8        48.529               
G10  27383488.277 6 143901166.242 6       566.908 6        41.338               
G03  24434149.820 8 128402321.552 8       689.955 8        51.253               
> 2012 09 14 12 47 01.0000000  0  5                                             
G06  25389798.946 7 133424314.617 7      -594.627 7        47.993               
G16  25619061.280 8 134629091.743 8     -2828.935 8        49.154               
G19  25590776.421 8 134480439.289 8      2569.097 8        48.326               
G10  27383379.544 7 143900598.617 7       563.025 7        42.336               
G03  24434020.127 8 128401633.459 8       687.561 8        51.085               
> 2012 09 14 12 47 02.0000000  0  5                                             
G06  25389913.182 8 133424910.424 8      -595.838 8        48.439               
G16  25619600.335 8 134631918.540 8     -2829.499 8        50.086               
G19  25590287.561 8 134477868.705 8      2568.631 8        48.113               
G10  27383272.598 7 143900031.586 7       567.782 7        42.237               
G03  24433890.148 8 128400946.055 8       686.943 8        51.453               
> 2012 09 14 12 47 03.0000000  0  5                                             
G06  25390025.972 7 133425506.875 7      -594.214 7        47.903               
G16  25620137.424 8 134634745.547 8     -2826.301 8        49.543               
G19  25589796.538 7 134475298.535 7      2569.689 7        47.193               
G10  27383162.221 7 143899465.112 7       562.375 7        42.092               
G03  24433759.758 8 128400259.334 8       683.900 8        50.396               
> 2012 09 14 12 47 04.0000000  0  5                                             
G06  25390139.869 8 133426103.952 8      -597.592 8        49.861               
G16  25620677.247 8 134637572.760 8     -2827.870 8        49.573               
G19  25589311.465 7 134472728.748 7      2569.402 7        47.845               
G10  27383050.468 6 143898899.243 6       563.498 6        41.999               
G03  24433628.295 8 128399573.301 8       685.582 8        50.754               
> 2012 09 14 12 47 05.0000000  0  5                                             
G06  25390252.676 8 133426701.665 8      -598.297 8        49.173               
G16  25621214.372 8 134640400.178 8     -2826.852 8        48.954               
G19  25588824.445 8 134470159.351 8      2568.949 8        48.891               
G10  27382941.449 7 143898333.932 7       564.932 7        42.471               
G03  24433497.262 8 128398887.948 8       685.896 8        50.552               
> 2012 09 14 12 47 06.0000000  0  5                                             
G06  25390365.304 8 133427300.000 8      -599.009 8        48.182               
G16  25621750.782 8 134643227.798 8     -2826.475 8        49.286               
G19  25588333.976 8 134467590.339 8      2568.797 8        48.995               
G10  27382835.039 7 143897769.190 7       559.478 7        43.516               
G03  24433366.103 8 128398203.280 8       683.786 8        51.325               
> 2012 09 14 12 47 07.0000000  0  5                                             
G06  25390480.041 8 133427898.985 8      -597.733 8        49.153               
G16  25622288.568 8 134646055.627 8     -2827.924 8        50.023               
G19  25587848.564 8 134465021.718 8      2569.257 8        49.417               
G10  27382725.287 7 143897205.026 7       562.476 7        43.994               
G03  24433236.285 8 128397519.283 8       684.126 8        52.172               
> 2012 09 14 12 47 08.0000000  0  5                                             
G06  25390595.404 8 133428498.595 8      -600.439 8        48.832               
G16  25622827.748 8 134648883.670 8     -2829.129 8        49.160               
G19  25587358.024 8 134462453.493 8      2568.517 8        50.011               
G10  27382618.449 7 143896641.434 7       563.867 7        43.628               
G03  24433105.948 8 128396835.981 8       681.624 8        52.609               
> 2012 09 14 12 47 09.0000000  0  5                                             
G06  25390711.249 8 133429098.834 8      -601.015 8        49.199               
G16  25623364.909 8 134651711.918 8     -2827.457 8        48.904               
G19  25586869.109 8 134459885.644 8      2567.523 8        48.974               
G10  27382515.130 7 143896078.414 7       562.643 7        44.200               
G03  24432975.254 8 128396153.362 8       680.548 8        52.491               
> 2012 09 14 12 47 10.0000000  0  5                                             
G06  25390826.790 8 133429699.707 8      -601.784 8        49.403               
G16  25623904.178 8 134654540.368 8     -2827.028 8        48.603               
G19  25586380.606 8 134457318.196 8      2569.221 8        49.005               
G10  27382403.002 7 143895515.976 7       563.245 7        43.688               
G03  24432845.864 8 128395471.414 8       682.911 8        51.029               
> 2012 09 14 12 47 11.0000000  0  5                                             
G06  25390939.239 8 133430301.210 8      -602.503 8        48.874               
G16  25624442.018 8 134657369.038 8     -2827.621 8        48.210               
G19  25585892.174 8 134454751.137 8      2567.840 8        48.071               
G10  27382295.752 7 143894954.094 7       563.010 7        43.735               
G03  24432715.045 8 128394790.162 8       680.776 8        49.554               
> 2012 09 14 12 47 12.0000000  0  5                                             
G06  25391052.869 8 133430903.350 8      -601.739 8        48.171               
G16  25624983.003 8 134660197.906 8     -2829.768 8        49.670               
G19  25585401.687 8 134452184.460 8      2566.748 8        48.844               
G10  27382195.757 7 143894392.821 7       555.418 7        44.334               
G03  24432585.030 8 128394109.593 8       680.137 8        49.542               
> 2012 09 14 12 47 13.0000000  0  5                                             
G06  25391169.285 7 133431506.134 7      -602.677 7        47.871               
G16  25625523.701 8 134663026.981 8     -2830.101 8        49.812               
G19  25584913.952 8 134449618.183 8      2566.122 8        48.862               
G10  27382085.576 7 143893832.094 7       560.662 7        44.135               
G03  24432455.444 8 128393429.709 8       678.707 8        50.336               
> 2012 09 14 12 47 14.0000000  0  5                                             
G06  25391282.593 8 133432109.541 8      -603.570 8        48.287               
G16  25626060.809 8 134665856.254 8     -2827.646 8        50.502               
G19  25584426.128 8 134447052.294 8      2566.531 8        49.327               
G10  27381979.845 7 143893271.960 7       559.774 7        43.833               
G03  24432326.162 8 128392750.503 8       680.815 8        51.170               
> 2012 09 14 12 47 15.0000000  0  5                                             
G06  25391398.134 8 133432713.571 8      -602.527 8        48.850               
G16  25626600.417 8 134668685.738 8     -2829.161 8        49.501               
G19  25583935.820 8 134444486.815 8      2568.368 8        48.911               
G10  27381873.525 7 143892712.392 7       557.256 7        44.417               
G03  24432197.826 8 128392071.988 8       680.748 8        50.843               
> 2012 09 14 12 47 16.0000000  0  5                                             
G06  25391511.173 8 133433318.238 8      -605.963 8        48.687               
G16  25627137.792 8 134671515.427 8     -2831.297 8        50.583               
G19  25583448.907 8 134441921.726 8      2565.133 8        48.679               
G10  27381763.559 7 143892153.392 7       556.551 7        43.778               
G03  24432068.115 8 128391394.159 8       679.234 8        51.420               
> 2012 09 14 12 47 17.0000000  0  5                                             
G06  25391623.784 7 133433923.537 7      -607.709 7        47.976               
G16  25627676.025 8 134674345.321 8     -2830.677 8        49.049               
G19  25582961.029 8 134439357.021 8      2564.932 8        49.710               
G10  27381655.308 7 143891594.977 7       558.722 7        43.372               
G03  24431940.584 8 128390717.016 8       677.183 8        50.927               
> 2012 09 14 12 47 18.0000000  0  5                                             
G06  25391740.272 7 133434529.471 7      -605.234 7        47.702               
G16  25628215.348 8 134677175.416 8     -2829.516 8        50.054               
G19  25582473.348 8 134436792.717 8      2561.639 8        49.195               
G10  27381553.222 7 143891037.117 7       558.002 7        44.119               
G03  24431811.337 8 128390040.550 8       676.817 8        50.677               
> 2012 09 14 12 47 19.0000000  0  5                                             
G06  25391856.582 8 133435136.032 8      -606.811 8        49.053               
G16  25628752.562 8 134680005.713 8     -2831.100 8        49.461               
