$GPRMC,124502.99,A,3017.2489309,N,09744.1497917,W,7.24,94.54,140912,0.0,E,A*17
$GPGGA,124502.99,3017.2489309,N,09744.1497917,W,1,05,1.0,183.197,M,0.000,M,0.0,*63
$GPGSA,A,3,03,06,10,16,19,,,,,,,,8.0,2.5,7.6,1*2A
$GPGSV,2,1,05,03,52,102,50,06,41,078,49,10,18,300,43,16,41,037,51,1*6F
$GPGSV,2,2,05,19,37,142,48,,,,,,,,,,,,,1*56
$GPRMC,124503.99,A,3017.2498074,N,09744.1510182,W,4.06,47.67,140912,0.0,E,A*18
$GPGGA,124503.99,3017.2498074,N,09744.1510182,W,1,05,1.0,193.906,M,0.000,M,0.0,*60
$GPGSA,A,3,03,06,10,16,19,,,,,,,,8.0,2.5,7.6,1*2A
$GPGSV,2,1,05,03,52,102,50,06,41,078,50,10,18,300,43,16,41,037,50,1*66
$GPGSV,2,2,05,19,37,142,48,,,,,,,,,,,,,1*56
$GPRMC,124504.99,A,3017.2500855,N,09744.1501363,W,3.28,266.00,140912,0.0,E,A*22
$GPGGA,124504.99,3017.2500855,N,09744.1501363,W,1,05,1.0,188.819,M,0.000,M,0.0,*64
$GPGSA,A,3,03,06,10,16,19,,,,,,,,8.0,2.5,7.6,1*2A
$GPGSV,2,1,05,03,52,102,50,06,41,078,50,10,18,300,42,16,41,037,50,1*67
$GPGSV,2,2,05,19,37,142,48,,,,,,,,,,,,,1*56
$GPRMC,124505.99,A,3017.2494810,N,09744.1519204,W,2.25,206.72,140912,0.0,E,A*28
$GPGGA,124505.99,3017.2494810,N,09744.1519204,W,1,05,1.0,200.545,M,0.000,M,0.0,*66
$GPGSA,A,3,03,06,10,16,19,,,,,,,,8.0,2.5,7.6,1*2A
$GPGSV,2,1,05,03,52,102,51,06,41,078,50,10,18,300,43,16,40,037,50,1*66
$GPGSV,2,2,05,19,37,142,47,,,,,,,,,,,,,1*59
$GPRMC,124506.99,A,3017.2503984,N,09744.1485244,W,1.98,6.21,140912,0.0,E,A*29
$GPGGA,124506.99,3017.2503984,N,09744.1485244,W,1,05,1.0,189.160,M,0.000,M,0.0,*67
$GPGSA,A,3,03,06,10,16,19,,,,,,,,8.0,2.5,7.6,1*2A
$GPGSV,2,1,05,03,52,102,52,06,41,078,48,10,18,300,44,16,40,037,50,1*6B
$GPGSV,2,2,05,19,37,142,48,,,,,,,,,,,,,1*56
$GPRMC,124507.99,A,3017.2499010,N,09744.1482249,W,2.95,222.79,140912,0.0,E,A*23
$GPGGA,124507.99,3017.2499010,N,09744.1482249,W,1,05,1.0,191.055,M,0.000,M,0.0,*64
$GPGSA,A,3,03,06,10,16,19,,,,,,,,8.0,2.5,7.6,1*2A
$GPGSV,2,1,05,03,52,102,51,06,41,078,48,10,18,300,42,16,40,037,50,1*6E
$GPGSV,2,2,05,19,37,142,48,,,,,,,,,,,,,1*56
$GPRMC,124508.99,A,3017.2495782,N,09744.1496258,W,4.59,90.81,140912,0.0,E,A*13
$GPGGA,124508.99,3017.2495782,N,09744.1496258,W,1,05,1.0,205.348,M,0.000,M,0.0,*6F
$GPGSA,A,3,03,06,10,16,19,,,,,,,,8.0,2.5,7.6,1*2A
$GPGSV,2,1,05,03,52,102,50,06,41,078,48,10,18,300,42,16,40,037,50,1*6F
$GPGSV,2,2,05,19,37,142,48,,,,,,,,,,,,,1*56
$GPRMC,124509.99,A,3017.2493641,N,09744.1501159,W,2.18,135.48,140912,0.0,E,A*2F
$GPGGA,124509.99,3017.2493641,N,09744.1501159,W,1,05,1.0,198.318,M,0.000,M,0.0,*69
$GPGSA,A,3,03,06,10,16,19,,,,,,,,8.0,2.5,7.6,1*2A
$GPGSV,2,1,05,03,52,102,50,06,41,078,48,10,18,300,43,16,40,037,50,1*6E
$GPGSV,2,2,05,19,37,142,48,,,,,,,,,,,,,1*56
$GPRMC,124510.99,A,3017.2489572,N,09744.1477093,W,1.13,135.48,140912,0.0,E,A*20
$GPGGA,124510.99,3017.2489572,N,09744.1477093,W,1,05,1.0,194.339,M,0.000,M,0.0,*61
$GPGSA,A,3,03,06,10,16,19,,,,,,,,8.0,2.5,7.6,1*2A
$GPGSV,2,1,05,03,52,102,50,06,41,078,49,10,18,300,44,16,40,037,49,1*60
$GPGSV,2,2,05,19,37,142,48,,,,,,,,,,,,,1*56
$GPRMC,124511.99,A,3017.2482974,N,09744.1518533,W,0.86,135.48,140912,0.0,E,A*2A
$GPGGA,124511.99,3017.2482974,N,09744.1518533,W,1,05,1.0,198.652,M,0.000,M,0.0,*62
$GPGSA,A,3,03,06,10,16,19,,,,,,,,8.0,2.5,7.6,1*2A
$GPGSV,2,1,05,03,52,102,51,06,41,078,49,10,18,300,43,16,40,037,50,1*6E
$GPGSV,2,2,05,19,37,142,48,,,,,,,,,,,,,1*56
$GPRMC,124512.99,A,3017.2492446,N,09744.1513118,W,3.54,27.72,140912,0.0,E,A*15
$GPGGA,124512.99,3017.2492446,N,09744.1513118,W,1,05,1.0,207.084,M,0.000,M,0.0,*62
$GPGSA,A,3,03,06,10,16,19,,,,,,,,8.0,2.5,7.6,1*2A
$GPGSV,2,1,05,03,52,102,51,06,41,078,49,10,18,300,42,16,40,037,49,1*67
$GPGSV,2,2,05,19,37,142,48,,,,,,,,,,,,,1*56
$GPRMC,124513.99,A,3017.2496016,N,09744.1533650,W,0.81,27.72,140912,0.0,E,A*13
$GPGGA,124513.99,3017.2496016,N,09744.1533650,W,1,05,1.0,208.709,M,0.000,M,0.0,*62
$GPGSA,A,3,03,06,10,16,19,,,,,,,,8.0,2.5,7.6,1*2A
$GPGSV,2,1,05,03,52,102,50,06,41,078,49,10,18,300,42,16,40,037,49,1*66
$GPGSV,2,2,05,19,37,142,48,,,,,,,,,,,,,1*56
$GPRMC,124514.99,A,3017.2510054,N,09744.1540370,W,1.85,27.72,140912,0.0,E,A*1B
$GPGGA,124514.99,3017.2510054,N,09744.1540370,W,1,05,1.0,221.825,M,0.000,M,0.0,*65
$GPGSA,A,3,03,06,10,16,19,,,,,,,,8.0,2.4,7.6,1*2B
$GPGSV,2,1,05,03,52,102,50,06,41,078,48,10,18,300,42,16,40,037,50,1*6F
$GPGSV,2,2,05,19,37,142,48,,,,,,,,,,,,,1*56
$GPRMC,124515.99,A,3017.2523316,N,09744.1532760,W,5.43,254.02,140912,0.0,E,A*20
$GPGGA,124515.99,3017.2523316,N,09744.1532760,W,1,05,1.0,218.734,M,0.000,M,0.0,*64
$GPGSA,A,3,03,06,10,16,19,,,,,,,,8.0,2.4,7.6,1*2B
$GPGSV,2,1,05,03,52,102,51,06,41,078,48,10,18,300,42,16,40,037,50,1*6E
$GPGSV,2,2,05,19,37,141,48,,,,,,,,,,,,,1*55
$GPRMC,124516.99,A,3017.2525165,N,09744.1515979,W,2.32,235.23,140912,0.0,E,A*25
$GPGGA,124516.99,3017.2525165,N,09744.1515979,W,1,05,1.0,205.921,M,0.000,M,0.0,*62
$GPGSA,A,3,03,06,10,16,19,,,,,,,,8.0,2.4,7.6,1*2B
$GPGSV,2,1,05,03,52,102,52,06,41,078,49,10,18,300,42,16,40,037,49,1*64
$GPGSV,2,2,05,19,37,141,49,,,,,,,,,,,,,1*54
$GPRMC,124517.99,A,3017.2525909,N,09744.1499552,W,2.89,275.25,140912,0.0,E,A*24
$GPGGA,124517.99,3017.2525909,N,09744.1499552,W,1,05,1.0,200.794,M,0.000,M,0.0,*64
$GPGSA,A,3,03,06,10,16,19,,,,,,,,8.0,2.4,7.6,1*2B
$GPGSV,2,1,05,03,52,102,50,06,41,078,49,10,18,300,43,16,40,037,49,1*67
$GPGSV,2,2,05,19,37,141,49,,,,,,,,,,,,,1*54
$GPRMC,124518.99,A,3017.2518575,N,09744.1518821,W,8.37,275.02,140912,0.0,E,A*29
$GPGGA,124518.99,3017.2518575,N,09744.1518821,W,1,05,1.0,201.959,M,0.000,M,0.0,*6D
$GPGSA,A,3,03,06,10,16,19,,,,,,,,8.0,2.4,7.6,1*2B
$GPGSV,2,1,05,03,52,102,49,06,41,078,48,10,18,300,42,16,40,037,50,1*67
$GPGSV,2,2,05,19,37,141,48,,,,,,,,,,,,,1*55
$GPRMC,124519.99,A,3017.2520377,N,09744.1523661,W,4.58,114.66,140912,0.0,E,A*26
$GPGGA,124519.99,3017.2520377,N,09744.1523661,W,1,05,1.0,210.149,M,0.000,M,0.0,*68
$GPGSA,A,3,03,06,10,16,19,,,,,,,,8.0,2.4,7.6,1*2B
$GPGSV,2,1,05,03,52,102,52,06,41,078,48,10,18,300,42,16,40,037,50,1*6D
$GPGSV,2,2,05,19,37,141,48,,,,,,,,,,,,,1*55
$GPRMC,124520.99,A,3017.2527984,N,09744.1483095,W,2.72,104.20,140912,0.0,E,A*26
$GPGGA,124520.99,3017.2527984,N,09744.1483095,W,1,05,1.0,192.928,M,0.000,M,0.0,*63
$GPGSA,A,3,03,06,10,16,19,,,,,,,,8.0,2.4,7.6,1*2B
$GPGSV,2,1,05,03,52,102,52,06,41,078,49,10,18,300,41,16,40,037,50,1*6F
$GPGSV,2,2,05,19,37,141,48,,,,,,,,,,,,,1*55
$GPRMC,124521.99,A,3017.2522925,N,09744.1491523,W,2.41,261.30,140912,0.0,E,A*23
$GPGGA,124521.99,3017.2522925,N,09744.1491523,W,1,05,1.0,199.753,M,0.000,M,0.0,*6E
$GPGSA,A,3,03,06,10,16,19,,,,,,,,8.0,2.4,7.6,1*2B
$GPGSV,2,1,05,03,52,102,51,06,41,078,50,10,18,300,42,16,40,037,50,1*67
$GPGSV,2,2,05,19,37,141,48,,,,,,,,,,,,,1*55
$GPRMC,124522.99,A,3017.2541595,N,09744.1499227,W,1.27,261.30,140912,0.0,E,A*2A
$GPGGA,124522.99,3017.2541595,N,09744.1499227,W,1,05,1.0,211.597,M,0.000,M,0.0,*6D
$GPGSA,A,3,03,06,10,16,19,,,,,,,,8.0,2.4,7.6,1*2B
$GPGSV,2,1,05,03,52,102,50,06,41,078,49,10,18,300,42,16,40,037,49,1*66
$GPGSV,2,2,05,19,37,141,49,,,,,,,,,,,,,1*54
$GPRMC,124523.99,A,3017.2543958,N,09744.1481640,W,3.45,30.13,140912,0.0,E,A*19
$GPGGA,124523.99,3017.2543958,N,09744.1481640,W,1,05,1.0,214.307,M,0.000,M,0.0,*65
$GPGSA,A,3,03,06,10,16,19,,,,,,,,8.0,2.4,7.6,1*2B
$GPGSV,2,1,05,03,52,102,50,06,41,078,49,10,18,300,43,16,40,037,50,1*6F
$GPGSV,2,2,05,19,37,141,48,,,,,,,,,,,,,1*55
$GPRMC,124524.99,A,3017.2562854,N,09744.1478429,W,5.72,269.57,140912,0.0,E,A*27
$GPGGA,124524.99,3017.2562854,N,09744.1478429,W,1,05,1.0,218.483,M,0.000,M,0.0,*60
$GPGSA,A,3,03,06,10,16,19,,,,,,,,8.0,2.4,7.6,1*2B
$GPGSV,2,1,05,03,52,102,50,06,41,078,48,10,18,300,42,16,40,037,50,1*6F
$GPGSV,2,2,05,19,37,141,49,,,,,,,,,,,,,1*54
$GPRMC,124525.99,A,3017.2560777,N,09744.1503200,W,1.81,269.57,140912,0.0,E,A*22
$GPGGA,124525.99,3017.2560777,N,09744.1503200,W,1,05,1.0,234.784,M,0.000,M,0.0,*67
$GPGSA,A,3,03,06,10,16,19,,,,,,,,8.0,2.4,7.6,1*2B
$GPGSV,2,1,05,03,52,102,50,06,41,078,48,10,18,300,43,16,40,037,49,1*66
$GPGSV,2,2,05,19,37,141,48,,,,,,,,,,,,,1*55
$GPRMC,124526.99,A,3017.2536953,N,09744.1490442,W,2.10,310.44,140912,0.0,E,A*27
$GPGGA,124526.99,3017.2536953,N,09744.1490442,W,1,05,1.0,228.131,M,0.000,M,0.0,*61
$GPGSA,A,3,03,06,10,16,19,,,,,,,,8.0,2.4,7.6,1*2B
$GPGSV,2,1,05,03,52,102,50,06,41,078,48,10,18,300,44,16,40,037,49,1*61
$GPGSV,2,2,05,19,37,141,48,,,,,,,,,,,,,1*55
$GPRMC,124527.99,A,3017.2527572,N,09744.1501193,W,1.69,310.44,140912,0.0,E,A*24
$GPGGA,124527.99,3017.2527572,N,09744.1501193,W,1,05,1.0,223.927,M,0.000,M,0.0,*6B
$GPGSA,A,3,03,06,10,16,19,,,,,,,,8.0,2.4,7.6,1*2B
$GPGSV,2,1,05,03,52,102,50,06,41,078,48,10,18,300,42,16,40,037,48,1*66
$GPGSV,2,2,05,19,37,141,48,,,,,,,,,,,,,1*55
$GPRMC,124528.99,A,3017.2519969,N,09744.1459989,W,3.87,244.25,140912,0.0,E,A*2A
$GPGGA,124528.99,3017.2519969,N,09744.1459989,W,1,05,1.0,197.339,M,0.000,M,0.0,*69
$GPGSA,A,3,03,06,10,16,19,,,,,,,,8.0,2.4,7.6,1*2B
$GPGSV,2,1,05,03,52,102,50,06,41,078,48,10,18,300,43,16,40,037,48,1*67
$GPGSV,2,2,05,19,37,141,48,,,,,,,,,,,,,1*55
$GPRMC,124529.99,A,3017.2518708,N,09744.1455854,W,0.46,244.25,140912,0.0,E,A*20
$GPGGA,124529.99,3017.2518708,N,09744.1455854,W,1,05,1.0,193.006,M,0.000,M,0.0,*66
$GPGSA,A,3,03,06,10,16,19,,,,,,,,8.0,2.4,7.6,1*2B
$GPGSV,2,1,05,03,52,102,50,06,41,078,47,10,18,300,42,16,40,037,48,1*69
$GPGSV,2,2,05,19,37,141,48,,,,,,,,,,,,,1*55
$GPRMC,124530.99,A,3017.2517700,N,09744.1453462,W,1.27,244.25,140912,0.0,E,A*26
$GPGGA,124530.99,3017.2517700,N,09744.1453462,W,1,05,1.0,189.156,M,0.000,M,0.0,*69
$GPGSA,A,3,03,06,10,16,19,,,,,,,,8.0,2.4,7.6,1*2B
$GPGSV,2,1,05,03,52,102,50,06,41,078,46,10,18,300,44,16,40,037,49,1*6F
$GPGSV,2,2,05,19,37,141,48,,,,,,,,,,,,,1*55
$GPRMC,124531.99,A,3017.2523317,N,09744.1465725,W,1.94,244.25,140912,0.0,E,A*2F
$GPGGA,124531.99,3017.2523317,N,09744.1465725,W,1,05,1.0,200.661,M,0.000,M,0.0,*69
$GPGSA,A,3,03,06,10,16,19,,,,,,,,8.0,2.4,7.6,1*2B
$GPGSV,2,1,05,03,52,102,50,06,41,078,47,10,18,300,42,16,40,037,49,1*68
$GPGSV,2,2,05,19,37,141,48,,,,,,,,,,,,,1*55
$GPRMC,124532.99,A,3017.2523787,N,09744.1473168,W,4.98,114.90,140912,0.0,E,A*28
$GPGGA,124532.99,3017.2523787,N,09744.1473168,W,1,05,1.0,190.821,M,0.000,M,0.0,*6F
$GPGSA,A,3,03,06,10,16,19,,,,,,,,8.0,2.4,7.6,1*2B
$GPGSV,2,1,05,03,52,102,50,06,41,078,48,10,18,300,42,16,40,037,48,1*66
$GPGSV,2,2,05,19,37,141,48,,,,,,,,,,,,,1*55
$GPRMC,124533.99,A,3017.2516824,N,09744.1503720,W,3.37,231.78,140912,0.0,E,A*25
$GPGGA,124533.99,3017.2516824,N,09744.1503720,W,1,05,1.0,199.647,M,0.000,M,0.0,*65
$GPGSA,A,3,03,06,10,16,19,,,,,,,,8.0,2.4,7.6,1*2B
$GPGSV,2,1,05,03,52,102,51,06,41,078,48,10,18,300,42,16,40,037,48,1*67
$GPGSV,2,2,05,19,37,141,47,,,,,,,,,,,,,1*5A
$GPRMC,124534.99,A,3017.2504681,N,09744.1499640,W,1.30,231.78,140912,0.0,E,A*20
$GPGGA,124534.99,3017.2504681,N,09744.1499640,W,1,05,1.0,201.628,M,0.000,M,0.0,*6E
$GPGSA,A,3,03,06,10,16,19,,,,,,,,8.0,2.4,7.6,1*2B
$GPGSV,2,1,05,03,52,102,51,06,41,078,49,10,18,300,40,16,40,037,49,1*65
$GPGSV,2,2,05,19,37,141,48,,,,,,,,,,,,,1*55
$GPRMC,124535.99,A,3017.2508631,N,09744.1493352,W,2.52,225.83,140912,0.0,E,A*2C
$GPGGA,124535.99,3017.2508631,N,09744.1493352,W,1,05,1.0,201.148,M,0.000,M,0.0,*65
$GPGSA,A,3,03,06,10,16,19,,,,,,,,8.0,2.4,7.6,1*2B
$GPGSV,2,1,05,03,52,102,52,06,41,078,50,10,18,300,40,16,40,037,49,1*6E
$GPGSV,2,2,05,19,37,141,48,,,,,,,,,,,,,1*55
$GPRMC,124536.99,A,3017.2518006,N,09744.1482206,W,6.75,264.76,140912,0.0,E,A*22
$GPGGA,124536.99,3017.2518006,N,09744.1482206,W,1,05,1.0,198.298,M,0.000,M,0.0,*68
$GPGSA,A,3,03,06,10,16,19,,,,,,,,8.0,2.4,7.6,1*2B
$GPGSV,2,1,05,03,52,102,52,06,41,078,50,10,18,300,41,16,40,037,48,1*6E
$GPGSV,2,2,05,19,37,141,48,,,,,,,,,,,,,1*55
$GPRMC,124537.99,A,3017.2508923,N,09744.1475184,W,0.65,264.76,140912,0.0,E,A*2A
$GPGGA,124537.99,3017.2508923,N,09744.1475184,W,1,05,1.0,192.908,M,0.000,M,0.0,*6F
$GPGSA,A,3,03,06,10,16,19,,,,,,,,8.0,2.4,7.6,1*2B
$GPGSV,2,1,05,03,52,102,51,06,41,078,50,10,18,300,42,16,40,037,50,1*67
$GPGSV,2,2,05,19,37,141,49,,,,,,,,,,,,,1*54
$GPRMC,124538.99,A,3017.2511477,N,09744.1467504,W,2.26,58.41,140912,0.0,E,A*12
$GPGGA,124538.99,3017.2511477,N,09744.1467504,W,1,05,1.0,201.285,M,0.000,M,0.0,*6C
$GPGSA,A,3,03,06,10,16,19,,,,,,,,8.0,2.4,7.6,1*2B
$GPGSV,2,1,05,03,52,102,51,06,41,078,49,10,18,300,42,16,40,037,50,1*6F
$GPGSV,2,2,05,19,37,141,49,,,,,,,,,,,,,1*54
$GPRMC,124539.99,A,3017.2512062,N,09744.1458299,W,3.74,252.81,140912,0.0,E,A*2D
$GPGGA,124539.99,3017.2512062,N,09744.1458299,W,1,05,1.0,189.197,M,0.000,M,0.0,*62
$GPGSA,A,3,03,06,10,16,19,,,,,,,,8.0,2.4,7.6,1*2B
$GPGSV,2,1,05,03,52,102,50,06,41,078,48,10,18,300,41,16,40,037,50,1*6C
$GPGSV,2,2,05,19,37,141,48,,,,,,,,,,,,,1*55
$GPRMC,124540.99,A,3017.2514940,N,09744.1448530,W,1.82,252.81,140912,0.0,E,A*22
$GPGGA,124540.99,3017.2514940,N,09744.1448530,W,1,05,1.0,178.516,M,0.000,M,0.0,*65
$GPGSA,A,3,03,06,10,16,19,,,,,,,,8.0,2.4,7.6,1*2B
$GPGSV,2,1,05,03,52,102,51,06,41,078,48,10,18,300,41,16,40,037,49,1*65
$GPGSV,2,2,05,19,37,141,49,,,,,,,,,,,,,1*54
$GPRMC,124541.99,A,3017.2521193,N,09744.1464935,W,4.39,117.08,140912,0.0,E,A*22
$GPGGA,124541.99,3017.2521193,N,09744.1464935,W,1,05,1.0,191.294,M,0.000,M,0.0,*69
$GPGSA,A,3,03,06,10,16,19,,,,,,,,8.0,2.4,7.6,1*2B
$GPGSV,2,1,05,03,52,102,50,06,41,078,48,10,18,300,42,16,40,037,50,1*6F
$GPGSV,2,2,05,19,37,141,49,,,,,,,,,,,,,1*54
$GPRMC,124542.99,A,3017.2526487,N,09744.1453101,W,3.00,301.82,140912,0.0,E,A*27
$GPGGA,124542.99,3017.2526487,N,09744.1453101,W,1,05,1.0,178.717,M,0.000,M,0.0,*6F
$GPGSA,A,3,03,06,10,16,19,,,,,,,,8.0,2.4,7.6,1*2B
$GPGSV,2,1,05,03,52,102,50,06,41,078,47,10,18,300,42,16,40,037,50,1*60
$GPGSV,2,2,05,19,37,141,48,,,,,,,,,,,,,1*55
$GPRMC,124543.99,A,3017.2542003,N,09744.1446815,W,0.90,301.82,140912,0.0,E,A*2E
$GPGGA,124543.99,3017.2542003,N,09744.1446815,W,1,05,1.0,179.747,M,0.000,M,0.0,*68
$GPGSA,A,3,03,06,10,16,19,,,,,,,,8.0,2.4,7.6,1*2B
$GPGSV,2,1,05,03,52,102,51,06,41,078,47,10,18,300,42,16,40,037,49,1*69
$GPGSV,2,2,05,19,37,141,49,,,,,,,,,,,,,1*54
$GPRMC,124544.99,A,3017.2546131,N,09744.1441912,W,2.61,126.86,140912,0.0,E,A*23
$GPGGA,124544.99,3017.2546131,N,09744.1441912,W,1,05,1.0,174.429,M,0.000,M,0.0,*6C
$GPGSA,A,3,03,06,10,16,19,,,,,,,,8.0,2.4,7.6,1*2B
$GPGSV,2,1,05,03,52,102,51,06,41,078,48,10,18,300,42,16,40,037,49,1*66
$GPGSV,2,2,05,19,37,141,50,,,,,,,,,,,,,1*5C
$GPRMC,124545.99,A,3017.2551330,N,09744.1483535,W,4.66,64.90,140912,0.0,E,A*11
$GPGGA,124545.99,3017.2551330,N,09744.1483535,W,1,05,1.0,199.259,M,0.000,M,0.0,*6D
$GPGSA,A,3,03,06,10,16,19,,,,,,,,8.0,2.4,7.6,1*2B
$GPGSV,2,1,05,03,52,102,52,06,41,078,49,10,18,300,43,16,40,037,48,1*64
$GPGSV,2,2,05,19,37,141,50,,,,,,,,,,,,,1*5C
$GPRMC,124546.99,A,3017.2539901,N,09744.1485080,W,10.12,81.05,140912,0.0,E,A*28
$GPGGA,124546.99,3017.2539901,N,09744.1485080,W,1,05,1.0,193.262,M,0.000,M,0.0,*67
$GPGSA,A,3,03,06,10,16,19,,,,,,,,8.0,2.4,7.6,1*2B
$GPGSV,2,1,05,03,52,102,51,06,41,078,50,10,18,300,43,16,40,037,50,1*66
$GPGSV,2,2,05,19,37,141,50,,,,,,,,,,,,,1*5C
$GPRMC,124547.99,A,3017.2539952,N,09744.1474560,W,9.39,270.66,140912,0.0,E,A*22
$GPGGA,124547.99,3017.2539952,N,09744.1474560,W,1,05,1.0,200.306,M,0.000,M,0.0,*6F
$GPGSA,A,3,03,06,10,16,19,,,,,,,,8.0,2.4,7.6,1*2B
$GPGSV,2,1,05,03,52,102,52,06,41,078,49,10,18,300,43,16,40,037,50,1*6D
$GPGSV,2,2,05,19,37,141,50,,,,,,,,,,,,,1*5C
$GPRMC,124548.99,A,3017.2534458,N,09744.1452855,W,4.51,327.76,140912,0.0,E,A*29
$GPGGA,124548.99,3017.2534458,N,09744.1452855,W,1,05,1.0,183.929,M,0.000,M,0.0,*6A
$GPGSA,A,3,03,06,10,16,19,,,,,,,,8.0,2.4,7.6,1*2B
$GPGSV,2,1,05,03,52,102,51,06,41,078,48,10,18,300,43,16,40,037,50,1*6F
$GPGSV,2,2,05,19,37,141,49,,,,,,,,,,,,,1*54
$GPRMC,124549.99,A,3017.2523731,N,09744.1462786,W,3.93,44.42,140912,0.0,E,A*18
$GPGGA,124549.99,3017.2523731,N,09744.1462786,W,1,05,1.0,187.315,M,0.000,M,0.0,*62
$GPGSA,A,3,03,06,10,16,19,,,,,,,,8.0,2.4,7.6,1*2B
$GPGSV,2,1,05,03,52,102,50,06,41,078,48,10,18,300,43,16,40,037,49,1*66
$GPGSV,2,2,05,19,37,141,49,,,,,,,,,,,,,1*54
$GPRMC,124550.99,A,3017.2526283,N,09744.1472861,W,2.39,286.43,140912,0.0,E,A*22
$GPGGA,124550.99,3017.2526283,N,09744.1472861,W,1,05,1.0,199.268,M,0.000,M,0.0,*60
$GPGSA,A,3,03,06,10,16,19,,,,,,,,8.0,2.4,7.6,1*2B
$GPGSV,2,1,05,03,52,102,51,06,41,078,48,10,18,300,43,16,40,037,49,1*67
$GPGSV,2,2,05,19,37,141,49,,,,,,,,,,,,,1*54
$GPRMC,124551.99,A,3017.2538158,N,09744.1483748,W,1.48,286.43,140912,0.0,E,A*26
$GPGGA,124551.99,3017.2538158,N,09744.1483748,W,1,05,1.0,194.411,M,0.000,M,0.0,*64
$GPGSA,A,3,03,06,10,16,19,,,,,,,,8.0,2.4,7.6,1*2B
$GPGSV,2,1,05,03,52,102,50,06,41,078,50,10,18,300,44,16,40,037,49,1*68
$GPGSV,2,2,05,19,37,141,50,,,,,,,,,,,,,1*5C
$GPRMC,124552.99,A,3017.2534140,N,09744.1484063,W,2.78,178.09,140912,0.0,E,A*25
$GPGGA,124552.99,3017.2534140,N,09744.1484063,W,1,05,1.0,187.775,M,0.000,M,0.0,*68
$GPGSA,A,3,03,06,10,16,19,,,,,,,,8.0,2.4,7.6,1*2B
$GPGSV,2,1,05,03,52,102,50,06,41,078,49,10,18,300,43,16,40,037,50,1*6F
$GPGSV,2,2,05,19,37,141,49,,,,,,,,,,,,,1*54
$GPRMC,124553.99,A,3017.2536570,N,09744.1483139,W,1.21,178.09,140912,0.0,E,A*27
$GPGGA,124553.99,3017.2536570,N,09744.1483139,W,1,05,1.0,187.933,M,0.000,M,0.0,*69
$GPGSA,A,3,03,06,10,16,19,,,,,,,,8.0,2.4,7.6,1*2B
$GPGSV,2,1,05,03,52,102,50,06,41,078,48,10,18,300,43,16,40,037,50,1*6E
$GPGSV,2,2,05,19,37,141,48,,,,,,,,,,,,,1*55
$GPRMC,124554.99,A,3017.2527118,N,09744.1486215,W,1.37,178.09,140912,0.0,E,A*25
$GPGGA,124554.99,3017.2527118,N,09744.1486215,W,1,05,1.0,184.664,M,0.000,M,0.0,*62
$GPGSA,A,3,03,06,10,16,19,,,,,,,,8.0,2.4,7.6,1*2B
$GPGSV,2,1,05,03,52,102,52,06,41,078,50,10,18,300,42,16,40,037,50,1*64
$GPGSV,2,2,05,19,37,141,48,,,,,,,,,,,,,1*55
$GPRMC,124555.99,A,3017.2518541,N,09744.1458657,W,0.94,178.09,140912,0.0,E,A*29
$GPGGA,124555.99,3017.2518541,N,09744.1458657,W,1,05,1.0,176.241,M,0.000,M,0.0,*68
$GPGSA,A,3,03,06,10,16,19,,,,,,,,8.0,2.4,7.6,1*2B
$GPGSV,2,1,05,03,52,102,52,06,41,078,49,10,18,300,42,16,40,037,50,1*6C
$GPGSV,2,2,05,19,37,141,48,,,,,,,,,,,,,1*55
$GPRMC,124556.99,A,3017.2515295,N,09744.1451939,W,6.36,308.29,140912,0.0,E,A*2E
$GPGGA,124556.99,3017.2515295,N,09744.1451939,W,1,05,1.0,174.956,M,0.000,M,0.0,*69
$GPGSA,A,3,03,06,10,16,19,,,,,,,,8.0,2.4,7.6,1*2B
$GPGSV,2,1,05,03,52,102,51,06,41,078,49,10,18,300,42,16,40,037,49,1*67
$GPGSV,2,2,05,19,37,141,48,,,,,,,,,,,,,1*55
$GPRMC,124557.99,A,3017.2527263,N,09744.1460025,W,1.63,308.29,140912,0.0,E,A*26
$GPGGA,124557.99,3017.2527263,N,09744.1460025,W,1,05,1.0,180.428,M,0.000,M,0.0,*69
$GPGSA,A,3,03,06,10,16,19,,,,,,,,8.0,2.4,7.6,1*2B
$GPGSV,2,1,05,03,52,102,52,06,41,078,49,10,18,300,43,16,40,037,50,1*6D
$GPGSV,2,2,05,19,37,141,48,,,,,,,,,,,,,1*55
$GPRMC,124558.99,A,3017.2529920,N,09744.1440855,W,1.83,308.29,140912,0.0,E,A*28
$GPGGA,124558.99,3017.2529920,N,09744.1440855,W,1,05,1.0,179.021,M,0.000,M,0.0,*62
$GPGSA,A,3,03,06,10,16,19,,,,,,,,8.0,2.4,7.6,1*2B
$GPGSV,2,1,05,03,52,102,51,06,41,078,49,10,18,300,42,16,40,037,50,1*6F
$GPGSV,2,2,05,19,37,141,48,,,,,,,,,,,,,1*55
$GPRMC,124559.99,A,3017.2535270,N,09744.1442073,W,2.39,125.08,140912,0.0,E,A*28
$GPGGA,124559.99,3017.2535270,N,09744.1442073,W,1,05,1.0,179.843,M,0.000,M,0.0,*62
$GPGSA,A,3,03,06,10,16,19,,,,,,,,8.0,2.4,7.6,1*2B
$GPGSV,2,1,05,03,52,102,51,06,41,078,48,10,18,300,42,16,40,037,49,1*66
$GPGSV,2,2,05,19,37,141,48,,,,,,,,,,,,,1*55
$GPRMC,124600.99,A,3017.2536345,N,09744.1458038,W,2.69,55.82,140912,0.0,E,A*16
$GPGGA,124600.99,3017.2536345,N,09744.1458038,W,1,05,1.0,193.323,M,0.000,M,0.0,*64
$GPGSA,A,3,03,06,10,16,19,,,,,,,,8.0,2.4,7.6,1*2B
$GPGSV,2,1,05,03,52,102,50,06,41,078,49,10,18,300,42,16,40,037,49,1*66
$GPGSV,2,2,05,19,37,141,49,,,,,,,,,,,,,1*54
$GPRMC,124601.99,A,3017.2521976,N,09744.1465963,W,2.01,346.80,140912,0.0,E,A*2F
$GPGGA,124601.99,3017.2521976,N,09744.1465963,W,1,05,1.0,192.769,M,0.000,M,0.0,*6B
$GPGSA,A,3,03,06,10,16,19,,,,,,,,8.0,2.4,7.6,1*2B
$GPGSV,2,1,05,03,52,102,51,06,41,077,48,10,18,300,42,16,40,037,48,1*68
$GPGSV,2,2,05,19,37,141,50,,,,,,,,,,,,,1*5C
$GPRMC,124602.99,A,3017.2517208,N,09744.1447687,W,7.18,61.87,140912,0.0,E,A*12
$GPGGA,124602.99,3017.2517208,N,09744.1447687,W,1,05,1.0,174.899,M,0.000,M,0.0,*62
$GPGSA,A,3,03,06,10,16,19,,,,,,,,8.0,2.4,7.6,1*2B
$GPGSV,2,1,05,03,52,102,50,06,41,077,49,10,18,300,40,16,40,037,49,1*6B
$GPGSV,2,2,05,19,37,141,49,,,,,,,,,,,,,1*54
$GPRMC,124603.99,A,3017.2512967,N,09744.1465412,W,0.88,61.87,140912,0.0,E,A*14
$GPGGA,124603.99,3017.2512967,N,09744.1465412,W,1,05,1.0,182.487,M,0.000,M,0.0,*60
$GPGSA,A,3,03,06,10,16,19,,,,,,,,8.0,2.4,7.6,1*2B
$GPGSV,2,1,05,03,52,102,50,06,41,077,50,10,18,300,40,16,40,037,50,1*6B
$GPGSV,2,2,05,19,37,141,49,,,,,,,,,,,,,1*54
$GPRMC,124604.99,A,3017.2503840,N,09744.1464005,W,3.33,104.89,140912,0.0,E,A*2B
$GPGGA,124604.99,3017.2503840,N,09744.1464005,W,1,05,1.0,181.537,M,0.000,M,0.0,*69
$GPGSA,A,3,03,06,10,16,19,,,,,,,,8.0,2.4,7.6,1*2B
$GPGSV,2,1,05,03,52,102,50,06,41,077,49,10,18,300,41,16,40,037,50,1*62
$GPGSV,2,2,05,19,37,141,48,,,,,,,,,,,,,1*55
$GPRMC,124605.99,A,3017.2501609,N,09744.1464220,W,3.05,26.33,140912,0.0,E,A*1B
$GPGGA,124605.99,3017.2501609,N,09744.1464220,W,1,05,1.0,162.986,M,0.000,M,0.0,*67
$GPGSA,A,3,03,06,10,16,19,,,,,,,,8.0,2.4,7.6,1*2B
$GPGSV,2,1,05,03,52,102,52,06,41,077,49,10,18,300,41,16,40,037,50,1*60
$GPGSV,2,2,05,19,37,141,48,,,,,,,,,,,,,1*55
$GPRMC,124606.99,A,3017.2498837,N,09744.1469736,W,5.41,241.35,140912,0.0,E,A*26
$GPGGA,124606.99,3017.2498837,N,09744.1469736,W,1,05,1.0,176.353,M,0.000,M,0.0,*6E
$GPGSA,A,3,03,06,10,16,19,,,,,,,,8.0,2.4,7.6,1*2B
$GPGSV,2,1,05,03,52,101,50,06,41,077,50,10,18,300,42,16,40,037,50,1*6A
$GPGSV,2,2,05,19,37,141,49,,,,,,,,,,,,,1*54
$GPRMC,124607.99,A,3017.2503098,N,09744.1484224,W,2.82,72.92,140912,0.0,E,A*1B
$GPGGA,124607.99,3017.2503098,N,09744.1484224,W,1,05,1.0,183.145,M,0.000,M,0.0,*6B
$GPGSA,A,3,03,06,10,16,19,,,,,,,,8.0,2.4,7.6,1*2B
$GPGSV,2,1,05,03,52,101,49,06,41,077,49,10,18,300,42,16,40,037,50,1*6A
$GPGSV,2,2,05,19,37,141,49,,,,,,,,,,,,,1*54
$GPRMC,124608.99,A,3017.2504760,N,09744.1478025,W,6.51,268.63,140912,0.0,E,A*2E
$GPGGA,124608.99,3017.2504760,N,09744.1478025,W,1,05,1.0,191.751,M,0.000,M,0.0,*63
$GPGSA,A,3,03,06,10,16,19,,,,,,,,8.0,2.4,7.6,1*2B
$GPGSV,2,1,05,03,52,101,51,06,41,077,48,10,18,300,42,16,40,037,50,1*62
$GPGSV,2,2,05,19,37,141,48,,,,,,,,,,,,,1*55
$GPRMC,124609.99,A,3017.2490264,N,09744.1478772,W,4.19,101.21,140912,0.0,E,A*23
$GPGGA,124609.99,3017.2490264,N,09744.1478772,W,1,05,1.0,189.311,M,0.000,M,0.0,*63
$GPGSA,A,3,03,06,10,16,19,,,,,,,,8.0,2.4,7.6,1*2B
$GPGSV,2,1,05,03,52,101,51,06,41,077,48,10,18,300,43,16,40,037,50,1*63
$GPGSV,2,2,05,19,37,141,48,,,,,,,,,,,,,1*55
$GPRMC,124610.99,A,3017.2485267,N,09744.1483708,W,0.39,101.21,140912,0.0,E,A*23
$GPGGA,124610.99,3017.2485267,N,09744.1483708,W,1,05,1.0,201.938,M,0.000,M,0.0,*67
$GPGSA,A,3,03,06,10,16,19,,,,,,,,8.0,2.4,7.6,1*2B
$GPGSV,2,1,05,03,52,101,51,06,41,077,48,10,18,300,42,16,40,037,50,1*62
$GPGSV,2,2,05,19,37,141,47,,,,,,,,,,,,,1*5A
$GPRMC,124611.99,A,3017.2474594,N,09744.1497334,W,0.92,101.21,140912,0.0,E,A*28
$GPGGA,124611.99,3017.2474594,N,09744.1497334,W,1,05,1.0,194.652,M,0.000,M,0.0,*61
$GPGSA,A,3,03,06,10,16,19,,,,,,,,8.0,2.4,7.6,1*2B
$GPGSV,2,1,05,03,52,101,52,06,41,077,49,10,18,300,42,16,40,037,50,1*60
$GPGSV,2,2,05,19,37,141,48,,,,,,,,,,,,,1*55
$GPRMC,124612.99,A,3017.2482070,N,09744.1513263,W,6.59,93.22,140912,0.0,E,A*1B
$GPGGA,124612.99,3017.2482070,N,09744.1513263,W,1,05,1.0,196.217,M,0.000,M,0.0,*6D
$GPGSA,A,3,03,06,10,16,19,,,,,,,,8.0,2.4,7.6,1*2B
$GPGSV,2,1,05,03,52,101,52,06,41,077,49,10,18,300,42,16,40,037,50,1*60
$GPGSV,2,2,05,19,37,141,48,,,,,,,,,,,,,1*55
$GPRMC,124613.99,A,3017.2477934,N,09744.1460322,W,2.05,241.97,140912,0.0,E,A*26
$GPGGA,124613.99,3017.2477934,N,09744.1460322,W,1,05,1.0,177.942,M,0.000,M,0.0,*6A
$GPGSA,A,3,03,06,10,16,19,,,,,,,,8.0,2.4,7.6,1*2B
$GPGSV,2,1,05,03,52,101,51,06,41,077,48,10,18,300,43,16,40,037,51,1*62
$GPGSV,2,2,05,19,37,141,50,,,,,,,,,,,,,1*5C
$GPRMC,124614.99,A,3017.2481803,N,09744.1423999,W,7.23,278.55,140912,0.0,E,A*25
$GPGGA,124614.99,3017.2481803,N,09744.1423999,W,1,05,1.0,168.361,M,0.000,M,0.0,*69
$GPGSA,A,3,03,06,10,16,19,,,,,,,,8.0,2.4,7.6,1*2B
$GPGSV,2,1,05,03,52,101,51,06,41,077,48,10,18,299,42,16,40,037,50,1*63
$GPGSV,2,2,05,19,37,141,48,,,,,,,,,,,,,1*55
$GPRMC,124615.99,A,3017.2493145,N,09744.1436956,W,2.00,116.64,140912,0.0,E,A*26
$GPGGA,124615.99,3017.2493145,N,09744.1436956,W,1,05,1.0,169.822,M,0.000,M,0.0,*6A
$GPGSA,A,3,03,06,10,16,19,,,,,,,,8.0,2.4,7.6,1*2B
$GPGSV,2,1,05,03,52,101,51,06,41,077,48,10,18,299,41,16,40,037,50,1*60
$GPGSV,2,2,05,19,37,141,48,,,,,,,,,,,,,1*55
$GPRMC,124616.99,A,3017.2494820,N,09744.1417349,W,6.39,128.99,140912,0.0,E,A*2E
$GPGGA,124616.99,3017.2494820,N,09744.1417349,W,1,05,1.0,165.322,M,0.000,M,0.0,*64
$GPGSA,A,3,03,06,10,16,19,,,,,,,,8.0,2.4,7.6,1*2B
$GPGSV,2,1,05,03,52,101,51,06,41,077,48,10,18,299,43,16,40,037,50,1*62
$GPGSV,2,2,05,19,37,141,48,,,,,,,,,,,,,1*55
$GPRMC,124617.99,A,3017.2494693,N,09744.1418137,W,1.93,128.99,140912,0.0,E,A*2A
$GPGGA,124617.99,3017.2494693,N,09744.1418137,W,1,05,1.0,159.392,M,0.000,M,0.0,*63
$GPGSA,A,3,03,06,10,16,19,,,,,,,,8.0,2.4,7.6,1*2B
$GPGSV,2,1,05,03,52,101,52,06,41,077,48,10,18,299,42,16,40,037,50,1*60
$GPGSV,2,2,05,19,37,141,47,,,,,,,,,,,,,1*5A
$GPRMC,124618.99,A,3017.2491045,N,09744.1447724,W,5.63,66.72,140912,0.0,E,A*16
$GPGGA,124618.99,3017.2491045,N,09744.1447724,W,1,05,1.0,159.981,M,0.000,M,0.0,*62
$GPGSA,A,3,03,06,10,16,19,,,,,,,,8.0,2.4,7.6,1*2B
$GPGSV,2,1,05,03,52,101,52,06,41,077,48,10,18,299,42,16,40,037,50,1*60
$GPGSV,2,2,05,19,37,141,47,,,,,,,,,,,,,1*5A
$GPRMC,124619.99,A,3017.2501936,N,09744.1463573,W,2.02,98.42,140912,0.0,E,A*16
$GPGGA,124619.99,3017.2501936,N,09744.1463573,W,1,05,1.0,174.791,M,0.000,M,0.0,*60
$GPGSA,A,3,03,06,10,16,19,,,,,,,,8.0,2.4,7.6,1*2B
$GPGSV,2,1,05,03,52,101,51,06,41,077,47,10,18,299,43,16,40,037,50,1*6D
$GPGSV,2,2,05,19,37,141,48,,,,,,,,,,,,,1*55
$GPRMC,124620.99,A,3017.2510556,N,09744.1451217,W,3.43,250.15,140912,0.0,E,A*22
$GPGGA,124620.99,3017.2510556,N,09744.1451217,W,1,05,1.0,173.589,M,0.000,M,0.0,*68
$GPGSA,A,3,03,06,10,16,19,,,,,,,,8.0,2.4,7.6,1*2B
$GPGSV,2,1,05,03,52,101,51,06,41,077,46,10,18,299,42,16,40,037,50,1*6D
$GPGSV,2,2,05,19,37,141,48,,,,,,,,,,,,,1*55
$GPRMC,124621.99,A,3017.2517984,N,09744.1416470,W,3.17,219.10,140912,0.0,E,A*2A
$GPGGA,124621.99,3017.2517984,N,09744.1416470,W,1,05,1.0,164.291,M,0.000,M,0.0,*61
$GPGSA,A,3,03,06,10,16,19,,,,,,,,8.0,2.4,7.6,1*2B
$GPGSV,2,1,05,03,52,101,51,06,41,077,46,10,18,299,43,16,40,037,50,1*6C
$GPGSV,2,2,05,19,37,141,49,,,,,,,,,,,,,1*54
$GPRMC,124622.99,A,3017.2518621,N,09744.1425053,W,1.26,219.10,140912,0.0,E,A*23
$GPGGA,124622.99,3017.2518621,N,09744.1425053,W,1,05,1.0,174.283,M,0.000,M,0.0,*6A
$GPGSA,A,3,03,06,10,16,19,,,,,,,,8.0,2.4,7.6,1*2B
$GPGSV,2,1,05,03,52,101,51,06,41,077,46,10,18,299,42,16,40,037,50,1*6D
$GPGSV,2,2,05,19,37,141,48,,,,,,,,,,,,,1*55
$GPRMC,124623.99,A,3017.2513099,N,09744.1446685,W,1.44,219.10,140912,0.0,E,A*20
$GPGGA,124623.99,3017.2513099,N,09744.1446685,W,1,05,1.0,180.572,M,0.000,M,0.0,*6F
$GPGSA,A,3,03,06,10,16,19,,,,,,,,8.0,2.4,7.6,1*2B
$GPGSV,2,1,05,03,52,101,52,06,41,077,47,10,18,299,43,16,40,037,50,1*6E
$GPGSV,2,2,05,19,37,141,49,,,,,,,,,,,,,1*54
$GPRMC,124624.99,A,3017.2522113,N,09744.1431720,W,0.75,219.10,140912,0.0,E,A*2B
$GPGGA,124624.99,3017.2522113,N,09744.1431720,W,1,05,1.0,182.042,M,0.000,M,0.0,*63
$GPGSA,A,3,03,06,10,16,19,,,,,,,,8.0,2.4,7.6,1*2B
$GPGSV,2,1,05,03,52,101,51,06,41,077,47,10,18,299,43,16,40,037,50,1*6D
$GPGSV,2,2,05,19,37,141,48,,,,,,,,,,,,,1*55
$GPRMC,124625.99,A,3017.2545407,N,09744.1457743,W,1.07,219.10,140912,0.0,E,A*2A
$GPGGA,124625.99,3017.2545407,N,09744.1457743,W,1,05,1.0,184.369,M,0.000,M,0.0,*6A
$GPGSA,A,3,03,06,10,16,19,,,,,,,,8.0,2.4,7.6,1*2B
$GPGSV,2,1,05,03,52,101,51,06,41,077,47,10,18,299,44,16,40,037,50,1*6A
$GPGSV,2,2,05,19,37,141,50,,,,,,,,,,,,,1*5C
$GPRMC,124626.99,A,3017.2538134,N,09744.1470005,W,1.28,219.10,140912,0.0,E,A*2B
$GPGGA,124626.99,3017.2538134,N,09744.1470005,W,1,05,1.0,185.305,M,0.000,M,0.0,*6D
$GPGSA,A,3,03,06,10,16,19,,,,,,,,8.0,2.4,7.6,1*2B
$GPGSV,2,1,05,03,52,101,51,06,41,077,48,10,18,299,44,16,40,037,50,1*65
$GPGSV,2,2,05,19,37,141,50,,,,,,,,,,,,,1*5C
$GPRMC,124627.99,A,3017.2538653,N,09744.1461075,W,2.03,80.81,140912,0.0,E,A*1B
$GPGGA,124627.99,3017.2538653,N,09744.1461075,W,1,05,1.0,176.636,M,0.000,M,0.0,*64
$GPGSA,A,3,03,06,10,16,19,,,,,,,,8.0,2.4,7.6,1*2B
$GPGSV,2,1,05,03,52,101,52,06,41,077,47,10,18,299,44,16,40,037,51,1*68
$GPGSV,2,2,05,19,37,141,49,,,,,,,,,,,,,1*54
$GPRMC,124628.99,A,3017.2537132,N,09744.1492551,W,3.28,80.87,140912,0.0,E,A*1A
$GPGGA,124628.99,3017.2537132,N,09744.1492551,W,1,05,1.0,181.307,M,0.000,M,0.0,*64
$GPGSA,A,3,03,06,10,16,19,,,,,,,,8.0,2.4,7.6,1*2B
$GPGSV,2,1,05,03,52,101,52,06,41,077,48,10,18,299,44,16,40,037,50,1*66
$GPGSV,2,2,05,19,37,141,49,,,,,,,,,,,,,1*54
$GPRMC,124629.99,A,3017.2533498,N,09744.1480830,W,3.79,320.13,140912,0.0,E,A*23
$GPGGA,124629.99,3017.2533498,N,09744.1480830,W,1,05,1.0,173.514,M,0.000,M,0.0,*64
$GPGSA,A,3,03,06,10,16,19,,,,,,,,8.0,2.4,7.6,1*2B
$GPGSV,2,1,05,03,52,101,51,06,41,077,49,10,18,299,42,16,40,037,50,1*62
$GPGSV,2,2,05,19,37,141,49,,,,,,,,,,,,,1*54
$GPRMC,124630.99,A,3017.2527409,N,09744.1484639,W,0.84,320.13,140912,0.0,E,A*24
$GPGGA,124630.99,3017.2527409,N,09744.1484639,W,1,05,1.0,180.090,M,0.000,M,0.0,*67
$GPGSA,A,3,03,06,10,16,19,,,,,,,,8.0,2.4,7.6,1*2B
$GPGSV,2,1,05,03,52,101,51,06,41,077,48,10,18,299,42,16,40,037,50,1*63
$GPGSV,2,2,05,19,37,141,49,,,,,,,,,,,,,1*54
$GPRMC,124631.99,A,3017.2522829,N,09744.1495116,W,1.20,320.13,140912,0.0,E,A*2B
$GPGGA,124631.99,3017.2522829,N,09744.1495116,W,1,05,1.0,182.983,M,0.000,M,0.0,*6E
$GPGSA,A,3,03,06,10,16,19,,,,,,,,8.0,2.4,7.6,1*2B
$GPGSV,2,1,05,03,52,101,51,06,41,077,49,10,18,299,42,16,40,037,49,1*6A
$GPGSV,2,2,05,19,37,141,48,,,,,,,,,,,,,1*55
$GPRMC,124632.99,A,3017.2511837,N,09744.1472923,W,4.84,307.77,140912,0.0,E,A*2C
$GPGGA,124632.99,3017.2511837,N,09744.1472923,W,1,05,1.0,176.915,M,0.000,M,0.0,*61
$GPGSA,A,3,03,06,10,16,19,,,,,,,,8.0,2.4,7.6,1*2B
$GPGSV,2,1,05,03,52,101,52,06,41,077,50,10,18,299,41,16,40,037,50,1*6A
$GPGSV,2,2,05,19,37,141,48,,,,,,,,,,,,,1*55
$GPRMC,124633.99,A,3017.2515052,N,09744.1500072,W,2.68,77.79,140912,0.0,E,A*15
$GPGGA,124633.99,3017.2515052,N,09744.1500072,W,1,05,1.0,162.937,M,0.000,M,0.0,*63
$GPGSA,A,3,03,06,10,16,19,,,,,,,,8.0,2.4,7.6,1*2B
$GPGSV,2,1,05,03,52,101,51,06,41,077,48,10,18,299,42,16,40,037,51,1*62
$GPGSV,2,2,05,19,37,141,48,,,,,,,,,,,,,1*55
$GPRMC,124634.99,A,3017.2512826,N,09744.1482240,W,1.95,295.59,140912,0.0,E,A*2B
$GPGGA,124634.99,3017.2512826,N,09744.1482240,W,1,05,1.0,172.642,M,0.000,M,0.0,*6C
$GPGSA,A,3,03,06,10,16,19,,,,,,,,8.0,2.4,7.6,1*2B
$GPGSV,2,1,05,03,52,101,50,06,41,077,49,10,18,299,41,16,40,037,50,1*60
$GPGSV,2,2,05,19,37,141,49,,,,,,,,,,,,,1*54
$GPRMC,124635.99,A,3017.2503717,N,09744.1459418,W,2.85,209.71,140912,0.0,E,A*27
$GPGGA,124635.99,3017.2503717,N,09744.1459418,W,1,05,1.0,175.628,M,0.000,M,0.0,*66
$GPGSA,A,3,03,06,10,16,19,,,,,,,,8.0,2.4,7.6,1*2B
$GPGSV,2,1,05,03,52,101,49,06,41,077,48,10,18,299,42,16,40,037,50,1*6A
$GPGSV,2,2,05,19,37,141,48,,,,,,,,,,,,,1*55
$GPRMC,124636.99,A,3017.2515908,N,09744.1508746,W,4.28,264.40,140912,0.0,E,A*26
$GPGGA,124636.99,3017.2515908,N,09744.1508746,W,1,05,1.0,197.044,M,0.000,M,0.0,*6F
$GPGSA,A,3,03,06,10,16,19,,,,,,,,8.0,2.4,7.6,1*2B
$GPGSV,2,1,05,03,52,101,50,06,41,077,48,10,18,299,42,16,40,037,50,1*62
$GPGSV,2,2,05,19,37,141,49,,,,,,,,,,,,,1*54
$GPRMC,124637.99,A,3017.2507514,N,09744.1498651,W,1.51,264.40,140912,0.0,E,A*21
$GPGGA,124637.99,3017.2507514,N,09744.1498651,W,1,05,1.0,192.330,M,0.000,M,0.0,*66
$GPGSA,A,3,03,06,10,16,19,,,,,,,,8.0,2.4,7.6,1*2B
$GPGSV,2,1,05,03,52,101,50,06,41,077,49,10,18,299,43,16,40,037,50,1*62
$GPGSV,2,2,05,19,37,141,50,,,,,,,,,,,,,1*5C
$GPRMC,124638.99,A,3017.2516062,N,09744.1492175,W,1.18,264.40,140912,0.0,E,A*2C
$GPGGA,124638.99,3017.2516062,N,09744.1492175,W,1,05,1.0,207.509,M,0.000,M,0.0,*65
$GPGSA,A,3,03,06,10,16,19,,,,,,,,8.0,2.4,7.6,1*2B
$GPGSV,2,1,05,03,52,101,51,06,41,077,49,10,18,299,42,16,40,037,51,1*63
$GPGSV,2,2,05,19,37,141,48,,,,,,,,,,,,,1*55
$GPRMC,124639.99,A,3017.2501870,N,09744.1480230,W,6.26,112.20,140912,0.0,E,A*2F
$GPGGA,124639.99,3017.2501870,N,09744.1480230,W,1,05,1.0,206.375,M,0.000,M,0.0,*64
$GPGSA,A,3,03,06,10,16,19,,,,,,,,8.0,2.4,7.6,1*2B
$GPGSV,2,1,05,03,52,101,52,06,41,077,49,10,18,299,42,16,40,037,50,1*61
$GPGSV,2,2,05,19,37,141,49,,,,,,,,,,,,,1*54
$GPRMC,124640.99,A,3017.2517713,N,09744.1480752,W,1.99,224.85,140912,0.0,E,A*27
$GPGGA,124640.99,3017.2517713,N,09744.1480752,W,1,05,1.0,196.487,M,0.000,M,0.0,*66
$GPGSA,A,3,03,06,10,16,19,,,,,,,,8.0,2.4,7.6,1*2B
$GPGSV,2,1,05,03,52,101,51,06,41,077,49,10,18,299,41,16,40,037,50,1*61
$GPGSV,2,2,05,19,37,141,50,,,,,,,,,,,,,1*5C
$GPRMC,124641.99,A,3017.2521794,N,09744.1451117,W,1.42,224.85,140912,0.0,E,A*21
$GPGGA,124641.99,3017.2521794,N,09744.1451117,W,1,05,1.0,183.186,M,0.000,M,0.0,*66
$GPGSA,A,3,03,06,10,16,19,,,,,,,,8.0,2.4,7.6,1*2B
$GPGSV,2,1,05,03,52,101,51,06,41,077,49,10,18,299,41,16,40,037,50,1*61
$GPGSV,2,2,05,19,37,141,50,,,,,,,,,,,,,1*5C
$GPRMC,124642.99,A,3017.2522627,N,09744.1434790,W,2.32,239.39,140912,0.0,E,A*2D
$GPGGA,124642.99,3017.2522627,N,09744.1434790,W,1,05,1.0,174.493,M,0.000,M,0.0,*6C
$GPGSA,A,3,03,06,10,16,19,,,,,,,,8.0,2.4,7.6,1*2B
$GPGSV,2,1,05,03,52,101,50,06,41,077,49,10,18,299,40,16,40,037,49,1*69
$GPGSV,2,2,05,19,37,141,50,,,,,,,,,,,,,1*5C
$GPRMC,124643.99,A,3017.2512210,N,09744.1435615,W,2.37,211.18,140912,0.0,E,A*2E
$GPGGA,124643.99,3017.2512210,N,09744.1435615,W,1,05,1.0,180.116,M,0.000,M,0.0,*60
$GPGSA,A,3,03,06,10,16,19,,,,,,,,8.0,2.4,7.7,1*2A
$GPGSV,2,1,05,03,52,101,51,06,41,077,48,10,18,299,41,16,40,037,49,1*68
$GPGSV,2,2,05,19,37,141,48,,,,,,,,,,,,,1*55
$GPRMC,124644.99,A,3017.2502427,N,09744.1423537,W,1.03,211.18,140912,0.0,E,A*2A
$GPGGA,124644.99,3017.2502427,N,09744.1423537,W,1,05,1.0,167.707,M,0.000,M,0.0,*6F
$GPGSA,A,3,03,06,10,16,19,,,,,,,,8.0,2.4,7.7,1*2A
$GPGSV,2,1,05,03,52,101,51,06,41,077,48,10,18,299,42,16,40,037,49,1*6B
$GPGSV,2,2,05,19,38,141,48,,,,,,,,,,,,,1*5A
$GPRMC,124645.99,A,3017.2498913,N,09744.1422184,W,1.61,211.18,140912,0.0,E,A*2A
$GPGGA,124645.99,3017.2498913,N,09744.1422184,W,1,05,1.0,166.554,M,0.000,M,0.0,*6E
$GPGSA,A,3,03,06,10,16,19,,,,,,,,8.0,2.4,7.7,1*2A
$GPGSV,2,1,05,03,52,101,52,06,41,077,48,10,18,299,42,16,40,037,50,1*60
$GPGSV,2,2,05,19,38,141,48,,,,,,,,,,,,,1*5A
$GPRMC,124646.99,A,3017.2495230,N,09744.1416440,W,9.44,79.04,140912,0.0,E,A*1A
$GPGGA,124646.99,3017.2495230,N,09744.1416440,W,1,05,1.0,156.749,M,0.000,M,0.0,*6D
$GPGSA,A,3,03,06,10,16,19,,,,,,,,8.0,2.4,7.7,1*2A
$GPGSV,2,1,05,03,52,101,50,06,41,077,48,10,18,299,42,16,40,037,50,1*62
$GPGSV,2,2,05,19,38,141,47,,,,,,,,,,,,,1*55
$GPRMC,124647.99,A,3017.2504618,N,09744.1461495,W,0.48,79.04,140912,0.0,E,A*11
$GPGGA,124647.99,3017.2504618,N,09744.1461495,W,1,05,1.0,174.335,M,0.000,M,0.0,*6C
$GPGSA,A,3,03,06,10,16,19,,,,,,,,8.0,2.4,7.7,1*2A
$GPGSV,2,1,05,03,52,101,51,06,41,077,50,10,18,299,42,16,40,037,50,1*6A
$GPGSV,2,2,05,19,38,141,48,,,,,,,,,,,,,1*5A
$GPRMC,124648.99,A,3017.2517398,N,09744.1470072,W,2.58,289.19,140912,0.0,E,A*2E
$GPGGA,124648.99,3017.2517398,N,09744.1470072,W,1,05,1.0,179.721,M,0.000,M,0.0,*6D
$GPGSA,A,3,03,06,10,16,19,,,,,,,,8.0,2.4,7.7,1*2A
$GPGSV,2,1,05,03,52,101,50,06,41,077,49,10,18,299,42,16,40,037,49,1*6B
$GPGSV,2,2,05,19,38,141,49,,,,,,,,,,,,,1*5B
$GPRMC,124649.99,A,3017.2517639,N,09744.1454774,W,1.88,289.19,140912,0.0,E,A*28
$GPGGA,124649.99,3017.2517639,N,09744.1454774,W,1,05,1.0,176.328,M,0.000,M,0.0,*67
$GPGSA,A,3,03,06,10,16,19,,,,,,,,8.0,2.4,7.7,1*2A
$GPGSV,2,1,05,03,52,101,51,06,41,077,48,10,18,299,44,16,40,037,49,1*6D
$GPGSV,2,2,05,19,38,141,49,,,,,,,,,,,,,1*5B
$GPRMC,124650.99,A,3017.2533103,N,09744.1477566,W,1.82,289.19,140912,0.0,E,A*22
$GPGGA,124650.99,3017.2533103,N,09744.1477566,W,1,05,1.0,185.198,M,0.000,M,0.0,*62
$GPGSA,A,3,03,06,10,16,19,,,,,,,,8.0,2.4,7.7,1*2A
$GPGSV,2,1,05,03,52,101,52,06,41,077,49,10,18,299,44,16,40,037,50,1*67
$GPGSV,2,2,05,19,38,141,50,,,,,,,,,,,,,1*53
$GPRMC,124651.99,A,3017.2519231,N,09744.1484785,W,2.92,138.24,140912,0.0,E,A*2F
$GPGGA,124651.99,3017.2519231,N,09744.1484785,W,1,05,1.0,187.004,M,0.000,M,0.0,*6C
$GPGSA,A,3,03,06,10,16,19,,,,,,,,8.0,2.4,7.7,1*2A
$GPGSV,2,1,05,03,52,101,52,06,41,077,49,10,18,299,44,16,40,037,49,1*6F
$GPGSV,2,2,05,19,38,141,50,,,,,,,,,,,,,1*53
$GPRMC,124652.99,A,3017.2518795,N,09744.1484711,W,3.72,69.45,140912,0.0,E,A*16
$GPGGA,124652.99,3017.2518795,N,09744.1484711,W,1,05,1.0,196.445,M,0.000,M,0.0,*69
$GPGSA,A,3,03,06,10,16,19,,,,,,,,8.0,2.4,7.7,1*2A
$GPGSV,2,1,05,03,52,101,52,06,41,077,49,10,18,299,44,16,40,037,49,1*6F
$GPGSV,2,2,05,19,38,141,49,,,,,,,,,,,,,1*5B
$GPRMC,124653.99,A,3017.2514158,N,09744.1514359,W,1.77,69.45,140912,0.0,E,A*1B
$GPGGA,124653.99,3017.2514158,N,09744.1514359,W,1,05,1.0,198.241,M,0.000,M,0.0,*6F
$GPGSA,A,3,03,06,10,16,19,,,,,,,,8.0,2.4,7.7,1*2A
$GPGSV,2,1,05,03,52,101,51,06,41,077,50,10,18,299,44,16,40,037,48,1*65
$GPGSV,2,2,05,19,38,141,49,,,,,,,,,,,,,1*5B
$GPRMC,124654.99,A,3017.2517962,N,09744.1510673,W,0.70,69.45,140912,0.0,E,A*11
$GPGGA,124654.99,3017.2517962,N,09744.1510673,W,1,05,1.0,199.187,M,0.000,M,0.0,*6B
$GPGSA,A,3,03,06,10,16,19,,,,,,,,8.0,2.4,7.7,1*2A
$GPGSV,2,1,05,03,52,101,50,06,41,077,49,10,18,299,44,16,40,037,48,1*6C
$GPGSV,2,2,05,19,38,141,48,,,,,,,,,,,,,1*5A
$GPRMC,124655.99,A,3017.2499050,N,09744.1480034,W,2.02,98.03,140912,0.0,E,A*19
$GPGGA,124655.99,3017.2499050,N,09744.1480034,W,1,05,1.0,195.633,M,0.000,M,0.0,*6C
$GPGSA,A,3,03,06,10,16,19,,,,,,,,8.0,2.4,7.7,1*2A
$GPGSV,2,1,05,03,52,101,50,06,41,077,48,10,18,299,44,16,40,037,50,1*64
$GPGSV,2,2,05,19,38,141,49,,,,,,,,,,,,,1*5B
$GPRMC,124656.99,A,3017.2490541,N,09744.1517400,W,2.42,108.20,140912,0.0,E,A*27
$GPGGA,124656.99,3017.2490541,N,09744.1517400,W,1,05,1.0,205.017,M,0.000,M,0.0,*65
$GPGSA,A,3,03,06,10,16,19,,,,,,,,8.0,2.4,7.7,1*2A
$GPGSV,2,1,05,03,52,101,50,06,41,077,48,10,18,299,44,16,40,037,50,1*64
$GPGSV,2,2,05,19,38,141,49,,,,,,,,,,,,,1*5B
$GPRMC,124657.99,A,3017.2499444,N,09744.1501131,W,3.38,281.76,140912,0.0,E,A*26
$GPGGA,124657.99,3017.2499444,N,09744.1501131,W,1,05,1.0,200.944,M,0.000,M,0.0,*63
$GPGSA,A,3,03,06,10,16,19,,,,,,,,8.0,2.4,7.7,1*2A
$GPGSV,2,1,05,03,52,101,51,06,41,077,48,10,18,299,44,16,40,037,50,1*65
$GPGSV,2,2,05,19,38,141,49,,,,,,,,,,,,,1*5B
$GPRMC,124658.99,A,3017.2485508,N,09744.1493642,W,1.33,281.76,140912,0.0,E,A*2D
$GPGGA,124658.99,3017.2485508,N,09744.1493642,W,1,05,1.0,192.928,M,0.000,M,0.0,*63
$GPGSA,A,3,03,06,10,16,19,,,,,,,,8.0,2.4,7.7,1*2A
$GPGSV,2,1,05,03,52,101,51,06,41,077,49,10,18,299,44,16,40,037,50,1*64
$GPGSV,2,2,05,19,38,141,49,,,,,,,,,,,,,1*5B
$GPRMC,124659.99,A,3017.2497473,N,09744.1501212,W,5.53,237.71,140912,0.0,E,A*21
$GPGGA,124659.99,3017.2497473,N,09744.1501212,W,1,05,1.0,193.426,M,0.000,M,0.0,*65
$GPGSA,A,3,03,06,10,16,19,,,,,,,,8.0,2.4,7.7,1*2A
$GPGSV,2,1,05,03,52,101,52,06,41,077,49,10,18,299,44,16,40,037,50,1*67
$GPGSV,2,2,05,19,38,141,49,,,,,,,,,,,,,1*5B
$GPRMC,124700.99,A,3017.2504080,N,09744.1478055,W,3.40,248.15,140912,0.0,E,A*2F
$GPGGA,124700.99,3017.2504080,N,09744.1478055,W,1,05,1.0,176.788,M,0.000,M,0.0,*69
$GPGSA,A,3,03,06,10,16,19,,,,,,,,8.0,2.4,7.7,1*2A
$GPGSV,2,1,05,03,52,101,51,06,41,077,48,10,18,299,43,16,40,037,49,1*6A
$GPGSV,2,2,05,19,38,141,50,,,,,,,,,,,,,1*53
$GPRMC,124701.99,A,3017.2500083,N,09744.1477707,W,2.90,337.08,140912,0.0,E,A*2F
$GPGGA,124701.99,3017.2500083,N,09744.1477707,W,1,05,1.0,185.373,M,0.000,M,0.0,*6C
$GPGSA,A,3,03,06,10,16,19,,,,,,,,8.0,2.4,7.7,1*2A
$GPGSV,2,1,05,03,52,101,51,06,41,077,48,10,18,299,44,16,40,037,50,1*65
$GPGSV,2,2,05,19,38,141,49,,,,,,,,,,,,,1*5B
$GPRMC,124702.99,A,3017.2500962,N,09744.1451328,W,2.79,236.43,140912,0.0,E,A*2F
$GPGGA,124702.99,3017.2500962,N,09744.1451328,W,1,05,1.0,172.647,M,0.000,M,0.0,*6E
$GPGSA,A,3,03,06,10,16,19,,,,,,,,8.0,2.4,7.7,1*2A
$GPGSV,2,1,05,03,52,101,51,06,41,077,49,10,18,299,44,16,40,037,50,1*64
$GPGSV,2,2,05,19,38,141,49,,,,,,,,,,,,,1*5B
$GPRMC,124703.99,A,3017.2510701,N,09744.1467565,W,2.85,49.99,140912,0.0,E,A*10
$GPGGA,124703.99,3017.2510701,N,09744.1467565,W,1,05,1.0,181.658,M,0.000,M,0.0,*6D
$GPGSA,A,3,03,06,10,16,19,,,,,,,,8.0,2.4,7.7,1*2A
$GPGSV,2,1,05,03,52,101,50,06,41,077,48,10,18,299,44,16,40,037,49,1*6C
$GPGSV,2,2,05,19,38,141,49,,,,,,,,,,,,,1*5B
$GPRMC,124704.99,A,3017.2503677,N,09744.1452541,W,3.54,80.02,140912,0.0,E,A*1F
$GPGGA,124704.99,3017.2503677,N,09744.1452541,W,1,05,1.0,171.087,M,0.000,M,0.0,*63
$GPGSA,A,3,03,06,10,16,19,,,,,,,,8.0,2.4,7.7,1*2A
$GPGSV,2,1,05,03,52,101,50,06,41,077,47,10,18,299,43,16,40,037,50,1*6C
$GPGSV,2,2,05,19,38,141,48,,,,,,,,,,,,,1*5A
$GPRMC,124705.99,A,3017.2495734,N,09744.1451885,W,2.77,56.87,140912,0.0,E,A*16
$GPGGA,124705.99,3017.2495734,N,09744.1451885,W,1,05,1.0,172.305,M,0.000,M,0.0,*66
$GPGSA,A,3,03,06,10,16,19,,,,,,,,8.0,2.4,7.7,1*2A
$GPGSV,2,1,05,03,52,101,50,06,41,077,48,10,18,299,44,16,40,037,51,1*65
$GPGSV,2,2,05,19,38,141,49,,,,,,,,,,,,,1*5B
$GPRMC,124706.99,A,3017.2496867,N,09744.1467760,W,0.85,56.87,140912,0.0,E,A*11
$GPGGA,124706.99,3017.2496867,N,09744.1467760,W,1,05,1.0,180.545,M,0.000,M,0.0,*61
$GPGSA,A,3,03,06,10,16,19,,,,,,,,8.0,2.4,7.7,1*2A
$GPGSV,2,1,05,03,52,101,51,06,41,077,48,10,18,299,44,16,40,037,49,1*6D
$GPGSV,2,2,05,19,38,141,50,,,,,,,,,,,,,1*53
$GPRMC,124707.99,A,3017.2501337,N,09744.1479367,W,3.56,329.33,140912,0.0,E,A*24
$GPGGA,124707.99,3017.2501337,N,09744.1479367,W,1,05,1.0,190.340,M,0.000,M,0.0,*6F
$GPGSA,A,3,03,06,10,16,19,,,,,,,,8.0,2.4,7.7,1*2A
$GPGSV,2,1,05,03,52,101,51,06,41,077,49,10,18,299,42,16,40,037,50,1*62
$GPGSV,2,2,05,19,38,141,49,,,,,,,,,,,,,1*5B
$GPRMC,124708.99,A,3017.2509415,N,09744.1468051,W,2.49,96.96,140912,0.0,E,A*15
$GPGGA,124708.99,3017.2509415,N,09744.1468051,W,1,05,1.0,189.958,M,0.000,M,0.0,*62
$GPGSA,A,3,03,06,10,16,19,,,,,,,,8.0,2.4,7.7,1*2A
$GPGSV,2,1,05,03,52,101,51,06,41,077,48,10,18,299,44,16,40,037,50,1*65
$GPGSV,2,2,05,19,38,141,49,,,,,,,,,,,,,1*5B
$GPRMC,124709.99,A,3017.2507311,N,09744.1459515,W,1.87,96.96,140912,0.0,E,A*1F
$GPGGA,124709.99,3017.2507311,N,09744.1459515,W,1,05,1.0,178.187,M,0.000,M,0.0,*6D
$GPGSA,A,3,03,06,10,16,19,,,,,,,,8.0,2.4,7.7,1*2A
$GPGSV,2,1,05,03,52,101,51,06,41,077,49,10,18,299,44,16,40,037,50,1*64
$GPGSV,2,2,05,19,38,141,49,,,,,,,,,,,,,1*5B
$GPRMC,124710.99,A,3017.2512070,N,09744.1491909,W,3.03,46.57,140912,0.0,E,A*1C
$GPGGA,124710.99,3017.2512070,N,09744.1491909,W,1,05,1.0,199.508,M,0.000,M,0.0,*6C
$GPGSA,A,3,03,06,10,16,19,,,,,,,,8.0,2.4,7.7,1*2A
$GPGSV,2,1,05,03,52,101,51,06,41,077,48,10,18,299,44,16,40,037,50,1*65
$GPGSV,2,2,05,19,38,141,49,,,,,,,,,,,,,1*5B
$GPRMC,124711.99,A,3017.2513939,N,09744.1473817,W,2.95,238.78,140912,0.0,E,A*22
$GPGGA,124711.99,3017.2513939,N,09744.1473817,W,1,05,1.0,188.747,M,0.000,M,0.0,*63
$GPGSA,A,3,03,06,10,16,19,,,,,,,,8.0,2.4,7.7,1*2A
$GPGSV,2,1,05,03,52,101,50,06,41,077,49,10,18,299,44,16,40,037,50,1*65
$GPGSV,2,2,05,19,38,141,50,,,,,,,,,,,,,1*53
$GPRMC,124712.99,A,3017.2501582,N,09744.1483839,W,1.70,238.78,140912,0.0,E,A*25
$GPGGA,124712.99,3017.2501582,N,09744.1483839,W,1,05,1.0,193.992,M,0.000,M,0.0,*60
$GPGSA,A,3,03,06,10,16,19,,,,,,,,8.0,2.4,7.7,1*2A
$GPGSV,2,1,05,03,52,101,50,06,41,077,49,10,18,299,44,16,40,037,50,1*65
$GPGSV,2,2,05,19,38,141,50,,,,,,,,,,,,,1*53
$GPRMC,124713.99,A,3017.2490699,N,09744.1470958,W,1.80,238.78,140912,0.0,E,A*21
$GPGGA,124713.99,3017.2490699,N,09744.1470958,W,1,05,1.0,178.833,M,0.000,M,0.0,*64
$GPGSA,A,3,03,06,10,16,19,,,,,,,,8.0,2.4,7.7,1*2A
$GPGSV,2,1,05,03,52,101,50,06,41,077,50,10,18,299,44,16,40,037,50,1*6D
$GPGSV,2,2,05,19,38,141,49,,,,,,,,,,,,,1*5B
$GPRMC,124714.99,A,3017.2491563,N,09744.1495768,W,1.95,248.25,140912,0.0,E,A*2C
$GPGGA,124714.99,3017.2491563,N,09744.1495768,W,1,05,1.0,184.233,M,0.000,M,0.0,*6B
$GPGSA,A,3,03,06,10,16,19,,,,,,,,8.0,2.4,7.7,1*2A
$GPGSV,2,1,05,03,52,101,50,06,41,077,49,10,18,299,44,16,40,037,50,1*65
$GPGSV,2,2,05,19,38,141,49,,,,,,,,,,,,,1*5B
$GPRMC,124715.99,A,3017.2486596,N,09744.1490451,W,2.61,313.33,140912,0.0,E,A*2D
$GPGGA,124715.99,3017.2486596,N,09744.1490451,W,1,05,1.0,185.334,M,0.000,M,0.0,*6D
$GPGSA,A,3,03,06,10,16,19,,,,,,,,8.0,2.4,7.7,1*2A
$GPGSV,2,1,05,03,52,101,52,06,41,077,50,10,18,299,44,16,40,037,51,1*6E
$GPGSV,2,2,05,19,38,141,48,,,,,,,,,,,,,1*5A
$GPRMC,124716.99,A,3017.2494437,N,09744.1459519,W,2.78,109.94,140912,0.0,E,A*23
$GPGGA,124716.99,3017.2494437,N,09744.1459519,W,1,05,1.0,177.569,M,0.000,M,0.0,*6C
$GPGSA,A,3,03,06,10,16,19,,,,,,,,8.0,2.4,7.7,1*2A
$GPGSV,2,1,05,03,52,101,51,06,41,077,50,10,18,299,44,16,40,037,52,1*6E
$GPGSV,2,2,05,19,38,141,49,,,,,,,,,,,,,1*5B
$GPRMC,124717.99,A,3017.2492618,N,09744.1461182,W,1.74,109.94,140912,0.0,E,A*29
$GPGGA,124717.99,3017.2492618,N,09744.1461182,W,1,05,1.0,178.729,M,0.000,M,0.0,*60
$GPGSA,A,3,03,06,10,16,19,,,,,,,,8.0,2.4,7.7,1*2A
$GPGSV,2,1,05,03,52,101,50,06,41,077,49,10,18,299,44,16,40,037,51,1*64
$GPGSV,2,2,05,19,38,141,48,,,,,,,,,,,,,1*5A
$GPRMC,124718.99,A,3017.2491476,N,09744.1492110,W,2.91,291.59,140912,0.0,E,A*23
$GPGGA,124718.99,3017.2491476,N,09744.1492110,W,1,05,1.0,191.575,M,0.000,M,0.0,*6D
$GPGSA,A,3,03,06,10,16,19,,,,,,,,8.0,2.4,7.7,1*2A
$GPGSV,2,1,05,03,52,101,50,06,41,077,49,10,18,299,44,16,40,037,50,1*65
$GPGSV,2,2,05,19,38,141,48,,,,,,,,,,,,,1*5A
$GPRMC,124719.99,A,3017.2500477,N,09744.1523531,W,7.09,278.01,140912,0.0,E,A*28
$GPGGA,124719.99,3017.2500477,N,09744.1523531,W,1,05,1.0,210.849,M,0.000,M,0.0,*60
$GPGSA,A,3,03,06,10,16,19,,,,,,,,8.0,2.4,7.7,1*2A
$GPGSV,2,1,05,03,52,100,49,06,41,077,50,10,18,299,43,16,40,037,50,1*63
$GPGSV,2,2,05,19,38,141,48,,,,,,,,,,,,,1*5A
$GPRMC,124720.99,A,3017.2498735,N,09744.1523062,W,1.55,278.01,140912,0.0,E,A*2B
$GPGGA,124720.99,3017.2498735,N,09744.1523062,W,1,05,1.0,217.215,M,0.000,M,0.0,*68
$GPGSA,A,3,03,06,10,16,19,,,,,,,,8.0,2.4,7.7,1*2A
$GPGSV,2,1,05,03,52,100,51,06,41,077,50,10,18,299,43,16,40,037,50,1*6A
$GPGSV,2,2,05,19,38,141,48,,,,,,,,,,,,,1*5A
$GPRMC,124721.99,A,3017.2507243,N,09744.1511844,W,1.25,278.01,140912,0.0,E,A*23
$GPGGA,124721.99,3017.2507243,N,09744.1511844,W,1,05,1.0,205.863,M,0.000,M,0.0,*6F
$GPGSA,A,3,03,06,10,16,19,,,,,,,,8.0,2.4,7.7,1*2A
$GPGSV,2,1,05,03,52,100,50,06,41,077,49,10,18,299,43,16,40,037,50,1*63
$GPGSV,2,2,05,19,38,141,50,,,,,,,,,,,,,1*53
$GPRMC,124722.99,A,3017.2510952,N,09744.1502782,W,1.11,278.01,140912,0.0,E,A*2D
$GPGGA,124722.99,3017.2510952,N,09744.1502782,W,1,05,1.0,212.120,M,0.000,M,0.0,*6E
$GPGSA,A,3,03,06,10,16,19,,,,,,,,8.0,2.4,7.7,1*2A
$GPGSV,2,1,05,03,52,100,50,06,41,077,48,10,18,299,43,16,40,037,50,1*62
$GPGSV,2,2,05,19,38,141,50,,,,,,,,,,,,,1*53
$GPRMC,124723.99,A,3017.2522653,N,09744.1480453,W,3.38,116.31,140912,0.0,E,A*26
$GPGGA,124723.99,3017.2522653,N,09744.1480453,W,1,05,1.0,205.501,M,0.000,M,0.0,*65
$GPGSA,A,3,03,06,10,16,19,,,,,,,,8.0,2.4,7.7,1*2A
$GPGSV,2,1,05,03,52,100,50,06,41,077,48,10,18,299,44,16,40,037,50,1*65
$GPGSV,2,2,05,19,38,141,49,,,,,,,,,,,,,1*5B
$GPRMC,124724.99,A,3017.2522474,N,09744.1492098,W,2.98,278.68,140912,0.0,E,A*2A
$GPGGA,124724.99,3017.2522474,N,09744.1492098,W,1,05,1.0,209.461,M,0.000,M,0.0,*6E
$GPGSA,A,3,03,06,10,16,19,,,,,,,,8.0,2.4,7.7,1*2A
$GPGSV,2,1,05,03,52,100,50,06,41,077,48,10,18,299,44,16,40,037,50,1*65
$GPGSV,2,2,05,19,38,141,49,,,,,,,,,,,,,1*5B
$GPRMC,124725.99,A,3017.2523352,N,09744.1488806,W,2.09,72.16,140912,0.0,E,A*14
$GPGGA,124725.99,3017.2523352,N,09744.1488806,W,1,05,1.0,196.934,M,0.000,M,0.0,*61
$GPGSA,A,3,03,06,10,16,19,,,,,,,,8.0,2.4,7.7,1*2A
$GPGSV,2,1,05,03,52,100,50,06,41,077,48,10,18,299,44,16,40,037,50,1*65
$GPGSV,2,2,05,19,38,141,49,,,,,,,,,,,,,1*5B
$GPRMC,124726.99,A,3017.2517523,N,09744.1459154,W,1.45,72.16,140912,0.0,E,A*19
$GPGGA,124726.99,3017.2517523,N,09744.1459154,W,1,05,1.0,188.430,M,0.000,M,0.0,*61
$GPGSA,A,3,03,06,10,16,19,,,,,,,,8.0,2.4,7.7,1*2A
$GPGSV,2,1,05,03,52,100,51,06,41,077,48,10,18,299,44,16,39,037,50,1*6A
$GPGSV,2,2,05,19,38,141,50,,,,,,,,,,,,,1*53
$GPRMC,124727.99,A,3017.2506298,N,09744.1466434,W,0.71,72.16,140912,0.0,E,A*16
$GPGGA,124727.99,3017.2506298,N,09744.1466434,W,1,05,1.0,184.788,M,0.000,M,0.0,*64
$GPGSA,A,3,03,06,10,16,19,,,,,,,,8.0,2.4,7.7,1*2A
$GPGSV,2,1,05,03,52,100,51,06,41,077,47,10,18,299,44,16,39,037,50,1*65
$GPGSV,2,2,05,19,38,141,50,,,,,,,,,,,,,1*53
$GPRMC,124728.99,A,3017.2504553,N,09744.1454356,W,3.33,110.07,140912,0.0,E,A*29
$GPGGA,124728.99,3017.2504553,N,09744.1454356,W,1,05,1.0,180.077,M,0.000,M,0.0,*68
$GPGSA,A,3,03,06,10,16,19,,,,,,,,8.0,2.4,7.7,1*2A
$GPGSV,2,1,05,03,52,100,50,06,41,077,48,10,18,299,43,16,39,037,50,1*6C
$GPGSV,2,2,05,19,38,141,50,,,,,,,,,,,,,1*53
$GPRMC,124729.99,A,3017.2484067,N,09744.1450472,W,3.28,250.83,140912,0.0,E,A*27
$GPGGA,124729.99,3017.2484067,N,09744.1450472,W,1,05,1.0,177.666,M,0.000,M,0.0,*69
$GPGSA,A,3,03,06,10,16,19,,,,,,,,8.0,2.4,7.7,1*2A
$GPGSV,2,1,05,03,52,100,51,06,41,077,48,10,18,299,42,16,39,037,50,1*6C
$GPGSV,2,2,05,19,38,141,50,,,,,,,,,,,,,1*53
$GPRMC,124730.99,A,3017.2494225,N,09744.1488078,W,3.22,260.46,140912,0.0,E,A*21
$GPGGA,124730.99,3017.2494225,N,09744.1488078,W,1,05,1.0,185.782,M,0.000,M,0.0,*69
$GPGSA,A,3,03,06,10,16,19,,,,,,,,8.0,2.4,7.7,1*2A
$GPGSV,2,1,05,03,52,100,51,06,41,077,47,10,18,299,44,16,39,037,50,1*65
$GPGSV,2,2,05,19,38,141,48,,,,,,,,,,,,,1*5A
$GPRMC,124731.99,A,3017.2496743,N,09744.1469459,W,2.11,355.63,140912,0.0,E,A*2E
$GPGGA,124731.99,3017.2496743,N,09744.1469459,W,1,05,1.0,181.574,M,0.000,M,0.0,*68
$GPGSA,A,3,03,06,10,16,19,,,,,,,,8.0,2.4,7.7,1*2A
$GPGSV,2,1,05,03,52,100,52,06,41,077,46,10,19,299,44,16,39,037,50,1*66
$GPGSV,2,2,05,19,38,141,49,,,,,,,,,,,,,1*5B
$GPRMC,124732.99,A,3017.2505937,N,09744.1472726,W,1.86,355.63,140912,0.0,E,A*27
$GPGGA,124732.99,3017.2505937,N,09744.1472726,W,1,05,1.0,182.626,M,0.000,M,0.0,*6B
$GPGSA,A,3,03,06,10,16,19,,,,,,,,8.0,2.4,7.7,1*2A
$GPGSV,2,1,05,03,52,100,52,06,41,077,46,10,19,299,44,16,39,037,48,1*6F
$GPGSV,2,2,05,19,38,141,48,,,,,,,,,,,,,1*5A
$GPRMC,124733.99,A,3017.2514861,N,09744.1487986,W,3.51,79.94,140912,0.0,E,A*17
$GPGGA,124733.99,3017.2514861,N,09744.1487986,W,1,05,1.0,194.692,M,0.000,M,0.0,*6E
$GPGSA,A,3,03,06,10,16,19,,,,,,,,8.0,2.4,7.7,1*2A
$GPGSV,2,1,05,03,52,100,51,06,41,077,46,10,19,299,44,16,39,037,49,1*6D
$GPGSV,2,2,05,19,38,141,48,,,,,,,,,,,,,1*5A
$GPRMC,124734.99,A,3017.2513445,N,09744.1475028,W,4.88,278.95,140912,0.0,E,A*2C
$GPGGA,124734.99,3017.2513445,N,09744.1475028,W,1,05,1.0,196.561,M,0.000,M,0.0,*69
$GPGSA,A,3,03,06,10,16,19,,,,,,,,8.0,2.4,7.7,1*2A
$GPGSV,2,1,05,03,52,100,51,06,41,077,48,10,19,299,44,16,39,037,49,1*63
$GPGSV,2,2,05,19,38,141,47,,,,,,,,,,,,,1*55
$GPRMC,124735.99,A,3017.2516108,N,09744.1511013,W,2.20,230.09,140912,0.0,E,A*22
$GPGGA,124735.99,3017.2516108,N,09744.1511013,W,1,05,1.0,215.283,M,0.000,M,0.0,*69
$GPGSA,A,3,03,06,10,16,19,,,,,,,,8.0,2.4,7.7,1*2A
$GPGSV,2,1,05,03,52,100,52,06,41,077,48,10,19,299,43,16,39,037,49,1*67
$GPGSV,2,2,05,19,38,141,49,,,,,,,,,,,,,1*5B
$GPRMC,124736.99,A,3017.2510387,N,09744.1508767,W,2.39,18.25,140912,0.0,E,A*10
$GPGGA,124736.99,3017.2510387,N,09744.1508767,W,1,05,1.0,214.707,M,0.000,M,0.0,*6D
$GPGSA,A,3,03,06,10,16,19,,,,,,,,8.0,2.4,7.7,1*2A
$GPGSV,2,1,05,03,52,100,51,06,41,077,48,10,19,299,44,16,39,037,48,1*62
$GPGSV,2,2,05,19,38,141,50,,,,,,,,,,,,,1*53
$GPRMC,124737.99,A,3017.2529155,N,09744.1494958,W,6.12,267.77,140912,0.0,E,A*20
$GPGGA,124737.99,3017.2529155,N,09744.1494958,W,1,05,1.0,213.275,M,0.000,M,0.0,*6A
$GPGSA,A,3,03,06,10,16,19,,,,,,,,8.0,2.4,7.7,1*2A
$GPGSV,2,1,05,03,52,100,51,06,41,077,49,10,19,299,44,16,39,037,48,1*63
$GPGSV,2,2,05,19,38,141,50,,,,,,,,,,,,,1*53
$GPRMC,124738.99,A,3017.2528339,N,09744.1507681,W,1.85,267.77,140912,0.0,E,A*2F
$GPGGA,124738.99,3017.2528339,N,09744.1507681,W,1,05,1.0,218.254,M,0.000,M,0.0,*64
$GPGSA,A,3,03,06,10,16,19,,,,,,,,8.0,2.4,7.7,1*2A
$GPGSV,2,1,05,03,52,100,51,06,41,076,48,10,19,299,44,16,39,037,48,1*63
$GPGSV,2,2,05,19,38,141,49,,,,,,,,,,,,,1*5B
$GPRMC,124739.99,A,3017.2526726,N,09744.1476533,W,1.16,267.77,140912,0.0,E,A*2D
$GPGGA,124739.99,3017.2526726,N,09744.1476533,W,1,05,1.0,202.117,M,0.000,M,0.0,*63
$GPGSA,A,3,03,06,10,16,19,,,,,,,,8.0,2.4,7.7,1*2A
$GPGSV,2,1,05,03,52,100,51,06,41,076,48,10,19,299,44,16,39,037,49,1*62
$GPGSV,2,2,05,19,38,141,48,,,,,,,,,,,,,1*5A
$GPRMC,124740.99,A,3017.2532449,N,09744.1488484,W,3.43,153.58,140912,0.0,E,A*2B
$GPGGA,124740.99,3017.2532449,N,09744.1488484,W,1,05,1.0,206.933,M,0.000,M,0.0,*64
$GPGSA,A,3,03,06,10,16,19,,,,,,,,8.0,2.4,7.7,1*2A
$GPGSV,2,1,05,03,52,100,51,06,41,076,50,10,19,299,45,16,39,037,49,1*6A
$GPGSV,2,2,05,19,38,141,49,,,,,,,,,,,,,1*5B
$GPRMC,124741.99,A,3017.2525393,N,09744.1509547,W,2.63,241.94,140912,0.0,E,A*29
$GPGGA,124741.99,3017.2525393,N,09744.1509547,W,1,05,1.0,215.572,M,0.000,M,0.0,*6E
$GPGSA,A,3,03,06,10,16,19,,,,,,,,8.0,2.4,7.7,1*2A
$GPGSV,2,1,05,03,52,100,52,06,41,076,50,10,19,299,44,16,39,037,48,1*69
$GPGSV,2,2,05,19,38,141,49,,,,,,,,,,,,,1*5B
$GPRMC,124742.99,A,3017.2521336,N,09744.1484567,W,9.65,97.68,140912,0.0,E,A*10
$GPGGA,124742.99,3017.2521336,N,09744.1484567,W,1,05,1.0,199.251,M,0.000,M,0.0,*61
$GPGSA,A,3,03,06,10,16,19,,,,,,,,8.0,2.4,7.7,1*2A
$GPGSV,2,1,05,03,52,100,52,06,41,076,49,10,19,299,44,16,39,037,48,1*61
$GPGSV,2,2,05,19,38,141,49,,,,,,,,,,,,,1*5B
$GPRMC,124743.99,A,3017.2519296,N,09744.1478714,W,4.41,63.87,140912,0.0,E,A*15
$GPGGA,124743.99,3017.2519296,N,09744.1478714,W,1,05,1.0,196.531,M,0.000,M,0.0,*6B
$GPGSA,A,3,03,06,10,16,19,,,,,,,,8.0,2.4,7.7,1*2A
$GPGSV,2,1,05,03,52,100,51,06,41,076,48,10,19,299,44,16,39,037,48,1*63
$GPGSV,2,2,05,19,38,141,48,,,,,,,,,,,,,1*5A
$GPRMC,124744.99,A,3017.2522529,N,09744.1475229,W,2.09,262.54,140912,0.0,E,A*28
$GPGGA,124744.99,3017.2522529,N,09744.1475229,W,1,05,1.0,191.319,M,0.000,M,0.0,*6A
$GPGSA,A,3,03,06,10,16,19,,,,,,,,8.0,2.4,7.7,1*2A
$GPGSV,2,1,05,03,52,100,51,06,41,076,49,10,19,299,44,16,39,037,48,1*62
$GPGSV,2,2,05,19,38,141,48,,,,,,,,,,,,,1*5A
$GPRMC,124745.99,A,3017.2533363,N,09744.1468556,W,1.29,262.54,140912,0.0,E,A*23
$GPGGA,124745.99,3017.2533363,N,09744.1468556,W,1,05,1.0,181.952,M,0.000,M,0.0,*64
$GPGSA,A,3,03,06,10,16,19,,,,,,,,8.0,2.4,7.7,1*2A
$GPGSV,2,1,05,03,52,100,51,06,41,076,49,10,19,299,44,16,39,037,48,1*62
$GPGSV,2,2,05,19,38,141,48,,,,,,,,,,,,,1*5A
$GPRMC,124746.99,A,3017.2529537,N,09744.1445713,W,0.41,262.54,140912,0.0,E,A*2F
$GPGGA,124746.99,3017.2529537,N,09744.1445713,W,1,05,1.0,173.359,M,0.000,M,0.0,*6B
$GPGSA,A,3,03,06,10,16,19,,,,,,,,8.0,2.4,7.7,1*2A
$GPGSV,2,1,05,03,52,100,52,06,41,076,48,10,19,299,44,16,39,037,48,1*60
$GPGSV,2,2,05,19,38,140,48,,,,,,,,,,,,,1*5B
$GPRMC,124747.99,A,3017.2531506,N,09744.1466448,W,1.35,262.54,140912,0.0,E,A*2B
$GPGGA,124747.99,3017.2531506,N,09744.1466448,W,1,05,1.0,186.247,M,0.000,M,0.0,*69
$GPGSA,A,3,03,06,10,16,19,,,,,,,,8.0,2.4,7.7,1*2A
$GPGSV,2,1,05,03,52,100,51,06,41,076,47,10,19,299,44,16,39,037,48,1*6C
$GPGSV,2,2,05,19,38,140,48,,,,,,,,,,,,,1*5B
$GPRMC,124748.99,A,3017.2531703,N,09744.1459147,W,4.41,74.82,140912,0.0,E,A*1D
$GPGGA,124748.99,3017.2531703,N,09744.1459147,W,1,05,1.0,175.645,M,0.000,M,0.0,*6D
$GPGSA,A,3,03,06,10,16,19,,,,,,,,8.0,2.4,7.7,1*2A
$GPGSV,2,1,05,03,52,100,50,06,41,076,48,10,19,299,44,16,39,037,48,1*62
$GPGSV,2,2,05,19,38,140,48,,,,,,,,,,,,,1*5B
$GPRMC,124749.99,A,3017.2528829,N,09744.1470700,W,7.31,107.44,140912,0.0,E,A*26
$GPGGA,124749.99,3017.2528829,N,09744.1470700,W,1,05,1.0,177.533,M,0.000,M,0.0,*6D
$GPGSA,A,3,03,06,10,16,19,,,,,,,,8.0,2.4,7.7,1*2A
$GPGSV,2,1,05,03,52,100,50,06,41,076,48,10,19,299,43,16,39,037,48,1*65
$GPGSV,2,2,05,19,38,140,48,,,,,,,,,,,,,1*5B
$GPRMC,124750.99,A,3017.2529997,N,09744.1452622,W,10.96,276.19,140912,0.0,E,A*1C
$GPGGA,124750.99,3017.2529997,N,09744.1452622,W,1,05,1.0,173.982,M,0.000,M,0.0,*63
$GPGSA,A,3,03,06,10,16,19,,,,,,,,8.0,2.4,7.7,1*2A
$GPGSV,2,1,05,03,52,100,51,06,41,076,48,10,19,299,43,16,39,037,48,1*64
$GPGSV,2,2,05,19,38,140,48,,,,,,,,,,,,,1*5B
$GPRMC,124751.99,A,3017.2524411,N,09744.1479312,W,1.84,276.19,140912,0.0,E,A*2F
$GPGGA,124751.99,3017.2524411,N,09744.1479312,W,1,05,1.0,184.528,M,0.000,M,0.0,*67
$GPGSA,A,3,03,06,10,16,19,,,,,,,,8.0,2.4,7.7,1*2A
$GPGSV,2,1,05,03,52,100,52,06,41,076,49,10,19,299,44,16,39,037,48,1*61
$GPGSV,2,2,05,19,38,140,48,,,,,,,,,,,,,1*5B
$GPRMC,124752.99,A,3017.2512263,N,09744.1469612,W,0.80,276.19,140912,0.0,E,A*2B
$GPGGA,124752.99,3017.2512263,N,09744.1469612,W,1,05,1.0,186.032,M,0.000,M,0.0,*6A
$GPGSA,A,3,03,06,10,16,19,,,,,,,,8.0,2.4,7.7,1*2A
$GPGSV,2,1,05,03,52,100,52,06,41,076,50,10,19,299,44,16,39,037,48,1*69
$GPGSV,2,2,05,19,38,140,49,,,,,,,,,,,,,1*5A
$GPRMC,124753.99,A,3017.2512540,N,09744.1499108,W,1.30,276.19,140912,0.0,E,A*25
$GPGGA,124753.99,3017.2512540,N,09744.1499108,W,1,05,1.0,208.747,M,0.000,M,0.0,*6E
$GPGSA,A,3,03,06,10,16,19,,,,,,,,8.0,2.4,7.7,1*2A
$GPGSV,2,1,05,03,52,100,51,06,41,076,50,10,19,299,44,16,39,037,48,1*6A
$GPGSV,2,2,05,19,38,140,48,,,,,,,,,,,,,1*5B
$GPRMC,124754.99,A,3017.2504623,N,09744.1478913,W,3.63,274.38,140912,0.0,E,A*2B
$GPGGA,124754.99,3017.2504623,N,09744.1478913,W,1,05,1.0,189.471,M,0.000,M,0.0,*69
$GPGSA,A,3,03,06,10,16,19,,,,,,,,8.0,2.4,7.7,1*2A
$GPGSV,2,1,05,03,52,100,50,06,41,076,50,10,19,299,44,16,39,037,48,1*6B
$GPGSV,2,2,05,19,38,140,48,,,,,,,,,,,,,1*5B
$GPRMC,124755.99,A,3017.2511498,N,09744.1478686,W,0.93,274.38,140912,0.0,E,A*23
$GPGGA,124755.99,3017.2511498,N,09744.1478686,W,1,05,1.0,194.899,M,0.000,M,0.0,*6B
$GPGSA,A,3,03,06,10,16,19,,,,,,,,8.0,2.4,7.7,1*2A
$GPGSV,2,1,05,03,52,100,51,06,41,076,50,10,19,299,44,16,39,037,48,1*6A
$GPGSV,2,2,05,19,38,140,49,,,,,,,,,,,,,1*5A
$GPRMC,124756.99,A,3017.2503961,N,09744.1499879,W,2.44,231.40,140912,0.0,E,A*2F
$GPGGA,124756.99,3017.2503961,N,09744.1499879,W,1,05,1.0,198.036,M,0.000,M,0.0,*60
$GPGSA,A,3,03,06,10,16,19,,,,,,,,8.0,2.4,7.7,1*2A
$GPGSV,2,1,05,03,52,100,52,06,41,076,50,10,19,299,45,16,39,037,48,1*68
$GPGSV,2,2,05,19,38,140,50,,,,,,,,,,,,,1*52
$GPRMC,124757.99,A,3017.2509030,N,09744.1457948,W,2.00,133.55,140912,0.0,E,A*2D
$GPGGA,124757.99,3017.2509030,N,09744.1457948,W,1,05,1.0,179.184,M,0.000,M,0.0,*60
$GPGSA,A,3,03,06,10,16,19,,,,,,,,8.0,2.4,7.7,1*2A
$GPGSV,2,1,05,03,52,100,51,06,41,076,50,10,19,299,46,16,39,037,49,1*69
$GPGSV,2,2,05,19,38,140,48,,,,,,,,,,,,,1*5B
$GPRMC,124758.99,A,3017.2510915,N,09744.1444047,W,3.34,52.78,140912,0.0,E,A*1F
$GPGGA,124758.99,3017.2510915,N,09744.1444047,W,1,05,1.0,178.123,M,0.000,M,0.0,*61
$GPGSA,A,3,03,06,10,16,19,,,,,,,,8.0,2.4,7.7,1*2A
$GPGSV,2,1,05,03,52,100,50,06,41,076,50,10,19,299,46,16,39,037,48,1*69
$GPGSV,2,2,05,19,38,140,49,,,,,,,,,,,,,1*5A
$GPRMC,124759.99,A,3017.2515955,N,09744.1432939,W,3.78,346.45,140912,0.0,E,A*2E
$GPGGA,124759.99,3017.2515955,N,09744.1432939,W,1,05,1.0,168.638,M,0.000,M,0.0,*6C
$GPGSA,A,3,03,06,10,16,19,,,,,,,,8.0,2.4,7.7,1*2A
$GPGSV,2,1,05,03,52,100,52,06,41,076,50,10,19,299,45,16,39,037,48,1*68
$GPGSV,2,2,05,19,38,140,49,,,,,,,,,,,,,1*5A
$GPRMC,124800.99,A,3017.2516047,N,09744.1461504,W,3.47,284.91,140912,0.0,E,A*2A
$GPGGA,124800.99,3017.2516047,N,09744.1461504,W,1,05,1.0,182.565,M,0.000,M,0.0,*6D
$GPGSA,A,3,03,06,10,16,19,,,,,,,,8.0,2.4,7.7,1*2A
$GPGSV,2,1,05,03,52,100,52,06,41,076,49,10,19,299,45,16,39,037,48,1*60
$GPGSV,2,2,05,19,38,140,48,,,,,,,,,,,,,1*5B
$GPRMC,124801.99,A,3017.2525962,N,09744.1455605,W,1.01,284.91,140912,0.0,E,A*20
$GPGGA,124801.99,3017.2525962,N,09744.1455605,W,1,05,1.0,184.832,M,0.000,M,0.0,*6E
$GPGSA,A,3,03,06,10,16,19,,,,,,,,8.0,2.4,7.7,1*2A
$GPGSV,2,1,05,03,52,100,52,06,41,076,49,10,19,299,44,16,39,037,49,1*60
$GPGSV,2,2,05,19,38,140,48,,,,,,,,,,,,,1*5B
$GPRMC,124802.99,A,3017.2521728,N,09744.1430495,W,5.82,95.57,140912,0.0,E,A*18
